rosbagTimestamp,x,y,z,x,y,z,w
1498555031990452357,-0.262421191406,-0.378283886719,0.105705175781,0.890289813619,-0.173454133747,0.407125436642,0.107455060803
1498555032010366620,-0.262086328125,-0.378507128906,0.105705175781,0.89099113501,-0.172395199591,0.406250626905,0.106654210568
1498555032030799767,-0.261863085937,-0.378395507812,0.105481933594,0.891684992527,-0.17144377259,0.405432052746,0.105497666081
1498555032050404914,-0.261863085937,-0.378283886719,0.105035449219,0.892192403353,-0.171107943541,0.404781587419,0.104243242194
1498555032070150433,-0.261974707031,-0.377837402344,0.104030859375,0.892803514698,-0.171290940597,0.403944005214,0.101933990716
1498555032090414109,-0.261751464844,-0.376944433594,0.103026269531,0.893587851958,-0.1709931493,0.403041895382,0.0990925037151
1498555032110463660,-0.261193359375,-0.376051464844,0.102356542969,0.89461160534,-0.169744346848,0.402000602476,0.0961896455633
1498555032130601076,-0.261081738281,-0.375493359375,0.102133300781,0.89534488438,-0.168591906834,0.401313319632,0.0942439730212
1498555032150281152,-0.260858496094,-0.375158496094,0.102914648437,0.896850794232,-0.16689774669,0.398844921022,0.0934158659417
1498555032170386240,-0.261081738281,-0.375381738281,0.103807617188,0.898261239022,-0.165593411392,0.396258299602,0.093192964165
1498555032190522995,-0.260858496094,-0.375604980469,0.10447734375,0.899307847405,-0.16406339119,0.394552295447,0.0930434598684
1498555032210380226,-0.260523632813,-0.375828222656,0.104923828125,0.899936035756,-0.162680394377,0.393739020833,0.0928429012195
1498555032230442733,-0.260300390625,-0.376051464844,0.104812207031,0.900219194601,-0.162027271265,0.393507863482,0.0922178204913
1498555032250315085,-0.260077148438,-0.376051464844,0.104700585937,0.900397724203,-0.16156068512,0.393476214579,0.0914251159882
1498555032270237766,-0.260077148438,-0.37593984375,0.104588964844,0.900548395749,-0.161288672926,0.393471165726,0.090437783266
1498555032290381292,-0.260188769531,-0.375270117187,0.10447734375,0.900810328248,-0.161325598654,0.393160592273,0.0891041661451
1498555032310397271,-0.260523632813,-0.374488769531,0.10447734375,0.900930834412,-0.161700962423,0.392990768926,0.0879470630337
1498555032331110840,-0.260858496094,-0.373707421875,0.104254101562,0.90104402606,-0.162033261982,0.392732034433,0.0873294580476
1498555032350549853,-0.260746875,-0.373484179687,0.103919238281,0.901034202227,-0.16217497767,0.392837407636,0.0866914886026
1498555032370437066,-0.260635253906,-0.373484179687,0.103584375,0.90103837041,-0.161766869042,0.393120454848,0.0861257401072
1498555032390466542,-0.260412011719,-0.373595800781,0.103695996094,0.901267567883,-0.160890102883,0.392984262265,0.0859913686862
1498555032410471250,-0.260188769531,-0.373707421875,0.104365722656,0.901700407772,-0.159595525869,0.392355456267,0.0867342993495
1498555032430174725,-0.260077148438,-0.373707421875,0.105258691406,0.902064742379,-0.158620351025,0.391652901609,0.0879021584389
1498555032450326027,-0.259965527344,-0.373372558594,0.106374902344,0.902479649581,-0.157700265308,0.390707410514,0.0894920543062
1498555032471005617,-0.259742285156,-0.373149316406,0.10715625,0.90289249019,-0.156797430758,0.389810352954,0.0908163289093
1498555032490402910,-0.259630664063,-0.372926074219,0.107491113281,0.903278400063,-0.156256907748,0.389081817938,0.0910343325984
1498555032510289200,-0.259742285156,-0.372926074219,0.107267871094,0.903457984078,-0.156243660761,0.38884894068,0.0902667757799
1498555032531087410,-0.25985390625,-0.373037695312,0.106486523437,0.903500090611,-0.156741771852,0.388897766632,0.0887588324087
1498555032550551170,-0.25985390625,-0.373149316406,0.105705175781,0.903525311357,-0.156910095008,0.389200905221,0.0868555651467
1498555032570493861,-0.259519042969,-0.373484179687,0.105035449219,0.903771351914,-0.156219599495,0.389414467744,0.0845526611379
1498555032590461692,-0.259072558594,-0.373819042969,0.10447734375,0.904067674829,-0.155564533796,0.389335760952,0.0829396189887
1498555032610449698,-0.258849316406,-0.373819042969,0.10447734375,0.904432282892,-0.155276329044,0.388715619868,0.0824116143075
1498555032630206972,-0.2589609375,-0.373595800781,0.104923828125,0.904563884886,-0.15531889759,0.388250566396,0.0830765665197
1498555032650470127,-0.259072558594,-0.373484179687,0.105705175781,0.90474940394,-0.154964107815,0.387730987661,0.0841387102748
1498555032670366047,-0.259072558594,-0.373595800781,0.106374902344,0.904965275812,-0.154458847268,0.387272383366,0.084855260044
1498555032690488473,-0.258849316406,-0.373930664062,0.106709765625,0.905142869499,-0.153846567487,0.387133706302,0.0847060382262
1498555032710395246,-0.258626074219,-0.374377148437,0.106709765625,0.905263551592,-0.153177369399,0.387241140349,0.0841361687035
1498555032731010347,-0.258402832031,-0.374712011719,0.106598144531,0.90526270165,-0.152748304651,0.387476851059,0.0838396464703
1498555032750040270,-0.258291210938,-0.374935253906,0.106486523437,0.905185905289,-0.152311612262,0.38788648794,0.0835686670283
1498555032770416876,-0.258291210938,-0.375046875,0.106486523437,0.905168529731,-0.15195687005,0.388092649473,0.0834454184146
1498555032790437117,-0.258291210938,-0.374935253906,0.106486523437,0.905184518558,-0.151882428078,0.388121788838,0.0832717985445
1498555032810439864,-0.258514453125,-0.374823632812,0.106374902344,0.905247047301,-0.151989271394,0.387960820794,0.0831471362225
1498555032830668090,-0.258849316406,-0.374712011719,0.10626328125,0.905369201547,-0.152178214066,0.387596569469,0.0831703035397
1498555032850901801,-0.2589609375,-0.374488769531,0.106374902344,0.905770528629,-0.151992087777,0.386656810491,0.0835144635472
1498555032870158988,-0.258514453125,-0.374600390625,0.106933007812,0.906828373578,-0.150451287422,0.384644739329,0.0841138246309
1498555032890727280,-0.257175,-0.375270117187,0.10804921875,0.90924984996,-0.145792799114,0.380638919123,0.0843989533234
1498555032910245044,-0.255835546875,-0.375828222656,0.109388671875,0.912563350429,-0.140212349024,0.37475354831,0.0844298920094
1498555032930803966,-0.255947167969,-0.375828222656,0.109500292969,0.91525992014,-0.136996878435,0.369779614973,0.0824267567862
1498555032950256591,-0.256170410156,-0.375828222656,0.109053808594,0.917331707481,-0.135361767078,0.366037826951,0.0787149268186
1498555032970791525,-0.25628203125,-0.376721191406,0.108495703125,0.919724938149,-0.13275231974,0.362347471561,0.0720220077744
1498555032990682172,-0.25449609375,-0.378395507812,0.109388671875,0.923637524161,-0.126855157566,0.356051972401,0.0634703545821
1498555033010305938,-0.252040429688,-0.380627929687,0.11162109375,0.928688463507,-0.120505805862,0.346410781907,0.0549150132673
1498555033030715524,-0.251259082031,-0.381744140625,0.112625683594,0.931390191058,-0.118141169006,0.340961488325,0.0479608138554
1498555033050300371,-0.252263671875,-0.381632519531,0.112737304687,-0.932462107539,0.120133443406,-0.338430022973,-0.0393381917522
1498555033069900369,-0.25449609375,-0.380851171875,0.111397851562,-0.930916287054,0.124839663462,-0.34188460279,-0.0304112363925
1498555033089965165,-0.255165820313,-0.380627929687,0.110728125,-0.928789110124,0.127262657483,-0.347513676588,-0.0197294072265
1498555033110213035,-0.25449609375,-0.382525488281,0.110728125,-0.926939666835,0.127969142919,-0.352649087524,-0.00673599115345
1498555033129933074,-0.254384472656,-0.384534667969,0.110170019531,-0.924717402321,0.129846337245,-0.357788277907,0.00502023327385
1498555033149960565,-0.252933398438,-0.386320605469,0.107379492187,-0.921307045595,0.133720054604,-0.364346202163,0.0237512042377
1498555033169952732,-0.252152050781,-0.387660058594,0.102021679687,-0.915983752302,0.139908511342,-0.373382682806,0.0445504899396
1498555033190052975,-0.251705566406,-0.387994921875,0.095994140625,-0.909851913915,0.147616657847,-0.382428572537,0.0642433185514
1498555033210070422,-0.252598535156,-0.388776269531,0.0910828125,-0.903601068615,0.155888954805,-0.391137488649,0.0788365875762
1498555033229886189,-0.253379882813,-0.388887890625,0.0887387695312,-0.8989360673,0.161517411486,-0.39796066934,0.0863329505559
1498555033249951048,-0.254272851563,-0.388776269531,0.0877341796875,-0.89413816363,0.16661639916,-0.405264226356,0.0922866550848
1498555033269875128,-0.255054199219,-0.38844140625,0.08661796875,-0.889106657557,0.170954860778,-0.413117826924,0.0979665664488
1498555033290348070,-0.254719335937,-0.387436816406,0.0837158203125,-0.883707889917,0.175770693166,-0.420584326827,0.10617840058
1498555033310507671,-0.254719335937,-0.386432226562,0.0802555664062,-0.878334437483,0.182577885048,-0.42693004405,0.11368671563
1498555033330219168,-0.254942578125,-0.384646289062,0.0777999023437,-0.874049807678,0.189181375429,-0.431788911401,0.117497561167
1498555033349981310,-0.256170410156,-0.381520898437,0.0756791015625,-0.868839719267,0.198815255815,-0.437300083713,0.11982768071
1498555033370284869,-0.258179589844,-0.378507128906,0.0732234375,-0.862781036952,0.209036052936,-0.443958853237,0.121710096053
1498555033389988671,-0.259519042969,-0.376051464844,0.0703212890625,-0.856472695735,0.218704892397,-0.450463039987,0.125322548283
1498555033410051803,-0.259965527344,-0.375604980469,0.067419140625,-0.851089909427,0.226947475066,-0.455432704223,0.129313037074
1498555033429855820,-0.259965527344,-0.376386328125,0.0650750976562,-0.846978102346,0.232217233843,-0.459412285873,0.132829221339
1498555033449758238,-0.260858496094,-0.377279296875,0.06161484375,-0.840452131635,0.240395932324,-0.46585043781,0.137234761433
1498555033469871315,-0.263314160156,-0.377502539062,0.0564802734375,-0.830656581651,0.251353132979,-0.475909505376,0.142623240018
1498555033489878319,-0.265546582031,-0.376944433594,0.052238671875,-0.821004478798,0.262191583291,-0.485801564927,0.145616135642
1498555033509989737,-0.2661046875,-0.3768328125,0.0515689453125,-0.815159451739,0.270466721281,-0.491922130279,0.142742560793
1498555033529871159,-0.2661046875,-0.376051464844,0.05268515625,-0.81186144006,0.276592065656,-0.495682691881,0.136661992996
1498555033549892753,-0.266439550781,-0.373707421875,0.0520154296875,-0.805507885627,0.287524086944,-0.501346053679,0.130916309454
1498555033570376757,-0.268002246094,-0.370135546875,0.0488900390625,-0.79589990654,0.301986394035,-0.509060342508,0.127299349071
1498555033590180945,-0.269788183594,-0.366675292969,0.0458762695312,-0.786838746164,0.317114041542,-0.514909982625,0.123252513098
1498555033610266441,-0.271574121094,-0.36522421875,0.0435322265625,-0.780096922883,0.329722088603,-0.518170300985,0.11929658156
1498555033629862213,-0.272801953125,-0.364889355469,0.042416015625,-0.775490226859,0.337872197215,-0.520742622467,0.11525800424
1498555033649873890,-0.274029785156,-0.365112597656,0.0417462890625,-0.770582583554,0.344775834404,-0.524727374276,0.109513874099
1498555033670316353,-0.273918164063,-0.365559082031,0.0420811523437,-0.767123998363,0.347627296826,-0.529384401808,0.102118503513
1498555033690331981,-0.272243847656,-0.364442871094,0.0440903320312,-0.765588234681,0.348222112086,-0.533247272648,0.0909030350743
1498555033710453944,-0.270346289062,-0.362322070312,0.0481086914062,-0.765852279433,0.348118835779,-0.535444589197,0.0747171610936
1498555033730109260,-0.269453320313,-0.360536132813,0.0517921875,-0.765814775929,0.347713337665,-0.53757825597,0.0602725682816
1498555033749890294,-0.268671972656,-0.359754785156,0.0560337890625,-0.767152300575,0.345834866974,-0.538329694847,0.0455711767845
1498555033769830715,-0.268337109375,-0.360201269531,0.0582662109375,-0.76935931614,0.344763026788,-0.536557512629,0.0364792224287
1498555033789857253,-0.268560351562,-0.360089648437,0.0591591796875,-0.772283098858,0.34615030923,-0.531793167108,0.0308999361826
1498555033810094128,-0.269006835938,-0.359643164062,0.060721875,-0.777635721495,0.347436392632,-0.523460947903,0.0236489693276
1498555033829761964,-0.269006835938,-0.359085058594,0.0636240234375,-0.785123183994,0.347001458771,-0.512805769234,0.0142062171445
1498555033849862050,-0.267779003906,-0.358303710938,0.0704329101563,-0.799646783191,0.342175465392,-0.493430950081,-0.00262116741096
1498555033870384946,-0.2661046875,-0.358303710938,0.07590234375,-0.812997183025,0.335829467863,-0.475412194491,-0.0154076032347
1498555033890114006,-0.264541992188,-0.358526953125,0.0773534179687,-0.822353012334,0.33235774754,-0.461371720876,-0.0202481093315
1498555033910163864,-0.262867675781,-0.360536132813,0.077241796875,-0.831065217406,0.328400738294,-0.448279451002,-0.0230020284893
1498555033929919137,-0.262197949219,-0.3625453125,0.0766836914062,-0.837137575971,0.325576199051,-0.438764780959,-0.0261970322614
1498555033949920005,-0.260188769531,-0.365112597656,0.0782463867187,-0.846092739597,0.318311613969,-0.426219879356,-0.0337847133454
1498555033970204321,-0.258291210938,-0.367345019531,0.0796974609375,-0.853938901683,0.310654351399,-0.415512961942,-0.0403881741152
1498555033990028975,-0.256170410156,-0.367791503906,0.081706640625,-0.861045633202,0.303458090038,-0.405403525963,-0.0464928625821
1498555034010083700,-0.254272851563,-0.367679882812,0.0849436523437,-0.867916334651,0.295863800278,-0.395208952891,-0.0547332740238
1498555034029866952,-0.253156640625,-0.367568261719,0.087957421875,-0.872630532444,0.289834953852,-0.388048764131,-0.0626881968877
1498555034050383652,-0.252598535156,-0.367679882812,0.0918641601562,-0.877818086022,0.283099473212,-0.379490433809,-0.0726436973699
1498555034070025971,-0.254049609375,-0.368349609375,0.0945430664062,-0.8818120706,0.278374663637,-0.372267493723,-0.0795734371913
1498555034090392166,-0.255723925781,-0.369019335937,0.0953244140625,-0.885594421933,0.275344253852,-0.365029612779,-0.0816176666339
1498555034110427917,-0.256616894531,-0.369577441406,0.096440625,-0.88941628364,0.272609254222,-0.357113661717,-0.0842181781093
1498555034130217124,-0.25628203125,-0.370023925781,0.09733359375,-0.892192818166,0.269170801518,-0.352444978607,-0.085566301068
1498555034150001879,-0.254719335937,-0.371251757812,0.0993427734375,-0.895955118842,0.262936812912,-0.347455391073,-0.0860430627715
1498555034170290055,-0.253603125,-0.3732609375,0.101128710937,-0.899432094758,0.256650247108,-0.343763452149,-0.0835418849778
1498555034189986967,-0.253268261719,-0.375381738281,0.103361132812,-0.90322053067,0.251359231723,-0.338709979689,-0.0792890866555
1498555034210129025,-0.254272851563,-0.376721191406,0.107267871094,-0.907404179822,0.248106931815,-0.330602812334,-0.0759103767829
1498555034229757974,-0.255277441406,-0.378060644531,0.110616503906,-0.910802608113,0.245610843089,-0.323877886814,-0.0722290609454
1498555034249770689,-0.254161230469,-0.3804046875,0.113072167969,-0.915194873227,0.240206585068,-0.317826677933,-0.0608715311386
1498555034269782877,-0.252152050781,-0.383195214844,0.11340703125,-0.918256673608,0.234598767693,-0.315955920229,-0.0440449321004
1498555034289780976,-0.249919628906,-0.384199804687,0.111955957031,-0.91962943443,0.232283246124,-0.31577064638,-0.0248011246474
1498555034310001306,-0.249361523437,-0.384423046875,0.109946777344,-0.919087855,0.234113734505,-0.316904200736,-0.00632468676497
1498555034329926559,-0.250142871094,-0.38486953125,0.107714355469,-0.916879430661,0.237487517669,-0.320709552407,0.00878473547875
1498555034349957239,-0.250700976563,-0.386208984375,0.104142480469,-0.913186103994,0.240767117344,-0.327317385665,0.031395281815
1498555034370368751,-0.252486914062,-0.387436816406,0.100682226562,-0.907539189219,0.245771436203,-0.336709060216,0.0509512506869
1498555034390284493,-0.254049609375,-0.386878710937,0.09911953125,-0.901916384447,0.251757779842,-0.345184389718,0.063345030192
1498555034410238616,-0.254272851563,-0.386097363281,0.0990079101562,-0.897604900912,0.255680915842,-0.35186848226,0.0715631352354
1498555034429858158,-0.253826367187,-0.385204394531,0.0972219726562,-0.892942533448,0.258230303822,-0.359736449159,0.0809964770498
1498555034450208091,-0.252375292969,-0.384981152344,0.091529296875,-0.884559631187,0.262902161126,-0.371287071681,0.102871876394
1498555034469960130,-0.252933398438,-0.384757910156,0.0840506835937,-0.872906628546,0.272011939463,-0.384448927199,0.127446243594
1498555034490178910,-0.254272851563,-0.383418457031,0.07858125,-0.86280902682,0.282404046775,-0.394060981725,0.14326367399
1498555034510173309,-0.254384472656,-0.383306835937,0.0769069335937,-0.858013048485,0.288837304413,-0.397594532229,0.14934928239
1498555034529937216,-0.25271015625,-0.383753320312,0.0764604492188,-0.856279903995,0.29084416747,-0.398611700496,0.152653557084
1498555034550252342,-0.250812597656,-0.384423046875,0.0746745117188,-0.853329067576,0.293998120505,-0.399785993843,0.159892985136
1498555034570276885,-0.250477734375,-0.384199804687,0.0711026367187,-0.847032158122,0.300773577405,-0.404348817663,0.169037900771
1498555034590288226,-0.252375292969,-0.382079003906,0.0663029296875,-0.837469281221,0.312029773872,-0.412001534571,0.177587608631
1498555034610437482,-0.254942578125,-0.380069824219,0.061168359375,-0.827130402966,0.32431789137,-0.420151402827,0.184786364567
1498555034630455347,-0.255723925781,-0.379288476562,0.0574848632812,-0.819926029053,0.331575233811,-0.426242741124,0.189990254601
1498555034650239478,-0.255723925781,-0.379288476562,0.0536897460937,-0.812035030379,0.339062316652,-0.432597926137,0.196201144658
1498555034670420308,-0.256505273437,-0.379734960937,0.0510108398437,-0.804732473389,0.345559463319,-0.439026724294,0.200623625077
1498555034690282539,-0.258402832031,-0.379400097656,0.0481086914062,-0.797162853399,0.353207697068,-0.444989152569,0.204353522085
1498555034710551370,-0.260746875,-0.378507128906,0.0462111328125,-0.790654227623,0.360789252076,-0.450148626738,0.205093202654
1498555034729989343,-0.261416601562,-0.377837402344,0.0447600585937,-0.785838580792,0.365206395025,-0.454731847375,0.205671974157
1498555034750286700,-0.261081738281,-0.3768328125,0.0418579101562,-0.778065270534,0.370349436997,-0.462289916798,0.209150094744
1498555034770010561,-0.260746875,-0.37593984375,0.0377279296875,-0.768398569424,0.374254435892,-0.472673536208,0.21465550049
1498555034789858977,-0.260300390625,-0.37415390625,0.0337095703125,-0.758726021671,0.379687265533,-0.48272649788,0.217134826032
1498555034810145670,-0.260412011719,-0.371809863281,0.0328166015625,-0.752347821721,0.385751015065,-0.490506079494,0.211122465662
1498555034829867009,-0.260188769531,-0.370470410156,0.0338211914062,-0.74937751133,0.389018814349,-0.495941803234,0.20282858625
1498555034850234570,-0.260188769531,-0.369800683594,0.033486328125,-0.744138926445,0.394555777025,-0.50196429112,0.196506609062
1498555034870331031,-0.261304980469,-0.368684472656,0.0298028320312,-0.733697317204,0.403892020881,-0.510570457394,0.194620888481
1498555034890221012,-0.26431875,-0.365559082031,0.0244450195312,-0.718749757119,0.417692999354,-0.521631663,0.191916005293
1498555034910320266,-0.268337109375,-0.360870996094,0.0217661132812,-0.703661242472,0.431826922174,-0.534489874959,0.180850597716
1498555034929918004,-0.270681152344,-0.357299121094,0.0229939453125,-0.695141558891,0.43800702162,-0.545337425986,0.165937198764
1498555034949967871,-0.271908984375,-0.355178320312,0.0251147460938,-0.689363677135,0.44170657179,-0.554189131791,0.150158021062
1498555034970222109,-0.271908984375,-0.354285351562,0.025003125,-0.684045756697,0.444693129777,-0.560759399056,0.140990494165
1498555034990163312,-0.271239257813,-0.353057519531,0.0246682617188,-0.680524906699,0.4475743885,-0.564721419233,0.132863602161
1498555035010490416,-0.270123046875,-0.351159960938,0.0256728515625,-0.679106569302,0.449461251922,-0.567328812596,0.122216483956
1498555035030366488,-0.268560351562,-0.35004375,0.0260077148437,-0.678268705871,0.449304134866,-0.569863892543,0.11546644969
1498555035050450120,-0.265881445312,-0.349374023438,0.0266774414062,-0.678955356884,0.447194112253,-0.571974153361,0.109007418151
1498555035070390717,-0.265100097656,-0.349262402344,0.027235546875,-0.678631805505,0.447123876442,-0.574112929291,0.0996667251048
1498555035090338216,-0.267555761719,-0.348481054687,0.0287982421875,-0.676951193881,0.450698963267,-0.575802290624,0.0840193294722
1498555035110720498,-0.272467089844,-0.346918359375,0.0314771484375,-0.674032649912,0.456424619979,-0.577499816598,0.0620525177438
1498555035130274093,-0.275034375,-0.345467285156,0.0327049804687,-0.671760182542,0.459817426024,-0.578769330687,0.048293412919
1498555035150140275,-0.274922753906,-0.344797558594,0.0340444335937,-0.67329956471,0.459161828606,-0.57821607057,0.0387851395228
1498555035170356529,-0.272690332031,-0.345355664062,0.0350490234375,-0.67758944531,0.455684564855,-0.576205164586,0.0348099017893
1498555035190329243,-0.270011425781,-0.345802148437,0.0367233398437,-0.683759996289,0.451805217629,-0.572188034683,0.0307435483192
1498555035210668340,-0.268671972656,-0.345467285156,0.0389557617187,-0.689653865663,0.449928476592,-0.566875257691,0.0243793713274
1498555035230084483,-0.268113867187,-0.344574316406,0.0408533203125,-0.694342097093,0.448955119948,-0.562132452415,0.0183155239863
1498555035250337054,-0.267332519531,-0.343681347656,0.0431973632812,-0.701686862251,0.447534914771,-0.554266651318,0.01168446157
1498555035270047378,-0.266886035156,-0.343123242187,0.0466576171875,-0.710805094376,0.446188039655,-0.543754276835,0.00190722377606
1498555035290175798,-0.265881445312,-0.3429,0.05268515625,-0.724322885488,0.444594643379,-0.526751615846,-0.0149898579312
1498555035310516340,-0.263314160156,-0.344351074219,0.0601637695312,-0.740483382009,0.442231477047,-0.504894502288,-0.0346009137995
1498555035330081872,-0.260523632813,-0.346360253906,0.0636240234375,-0.751319557556,0.44017901905,-0.489765422802,-0.0434877482853
1498555035350255071,-0.257175,-0.349374023438,0.0650750976562,-0.762278240039,0.437633214724,-0.474645434529,-0.046051771028
1498555035370144751,-0.255612304687,-0.351271582031,0.0649634765625,-0.769145479691,0.437103661667,-0.463896701744,-0.0464270410322
1498555035390123024,-0.2553890625,-0.351606445313,0.065633203125,-0.774055075029,0.437970846769,-0.454440742304,-0.0500388842471
1498555035410570988,-0.255277441406,-0.3518296875,0.06697265625,-0.779070796916,0.438459160635,-0.444620527202,-0.0558107932122
1498555035430123339,-0.254942578125,-0.352052929687,0.067865625,-0.783398105255,0.437809892694,-0.437039633282,-0.0600521896645
1498555035450292178,-0.254272851563,-0.352834277344,0.0688702148437,-0.789662611677,0.435510176082,-0.427439114399,-0.0637153806373
1498555035470305479,-0.253937988281,-0.353727246094,0.0706561523438,-0.796141584433,0.431418792461,-0.418819759,-0.0680177367995
1498555035490121371,-0.253491503906,-0.354285351562,0.075455859375,-0.803717892973,0.424066206143,-0.410097742418,-0.0776224386725
1498555035510577341,-0.251705566406,-0.355848046875,0.0811485351562,-0.812699801986,0.413668387445,-0.400836925989,-0.0879048112729
1498555035530169347,-0.250700976563,-0.357075878906,0.0844971679687,-0.819057225328,0.406672171463,-0.39354921483,-0.0942444804818
1498555035550256977,-0.250589355469,-0.358526953125,0.0850552734375,-0.824741211845,0.402425108033,-0.385804606236,-0.0949250847553
1498555035570227177,-0.251482324219,-0.359419921875,0.0846087890625,-0.828487100181,0.400174586671,-0.380423817917,-0.0935261662722
1498555035590362692,-0.2518171875,-0.359754785156,0.0877341796875,-0.83286085914,0.395483326418,-0.374696340727,-0.0976646306674
1498555035610633801,-0.251259082031,-0.360870996094,0.09197578125,-0.838232242588,0.388270863349,-0.368912044147,-0.10254924594
1498555035630297049,-0.250812597656,-0.36165234375,0.094208203125,-0.84190358628,0.383232890414,-0.36556502868,-0.103407509007
1498555035650263517,-0.250589355469,-0.362991796875,0.0949895507812,-0.846397697634,0.377810092419,-0.361832836242,-0.0997370047863
1498555035670351545,-0.25092421875,-0.36433125,0.0947663085938,-0.850431213207,0.373868472824,-0.358206080797,-0.0931532088093
1498555035690364385,-0.2518171875,-0.364777734375,0.0949895507812,-0.853947783796,0.371680690269,-0.353582550134,-0.0872125407975
1498555035711187125,-0.253268261719,-0.3661171875,0.0936500976563,-0.857351563065,0.37031725241,-0.349047831991,-0.0773242578956
1498555035730993710,-0.253826367187,-0.367456640625,0.0923106445312,-0.86037159989,0.367801116594,-0.345994860287,-0.0690695692003
1498555035750245110,-0.252598535156,-0.37058203125,0.0934268554687,-0.866581724848,0.358814321171,-0.341390329312,-0.061164042817
1498555035770402650,-0.250700976563,-0.373819042969,0.0972219726562,-0.872870581606,0.347484818571,-0.337649065092,-0.0578304199479
1498555035790369980,-0.248468554687,-0.376051464844,0.100124121094,-0.877939318823,0.337681331218,-0.335306371148,-0.0525690829195
1498555035811104787,-0.247017480469,-0.378172265625,0.0993427734375,-0.880991548089,0.331824829699,-0.334845461605,-0.040307461271
1498555035831002082,-0.246459375,-0.37951171875,0.096440625,-0.881761090035,0.329204961001,-0.336876948412,-0.0252070502426
1498555035850430070,-0.246459375,-0.381186035156,0.092422265625,-0.881285048636,0.327412911781,-0.340769125049,-0.00372178215613
1498555035870855497,-0.247687207031,-0.381855761719,0.089743359375,-0.878954702289,0.327523940047,-0.346275601767,0.0161216512934
1498555035890514508,-0.24913828125,-0.380851171875,0.087064453125,-0.875085284702,0.329593910798,-0.352473508985,0.0368242301643
1498555035910740483,-0.25092421875,-0.380962792969,0.082153125,-0.869643659944,0.333794597338,-0.358588628524,0.0609529900881
1498555035930357494,-0.253156640625,-0.381520898437,0.0773534179687,-0.863570251568,0.338160407476,-0.365263905523,0.0804750815111
1498555035950719705,-0.253379882813,-0.382413867187,0.0726653320313,-0.857044638184,0.340103296619,-0.372727628884,0.104299331043
1498555035970875621,-0.251035839844,-0.383195214844,0.0714375,-0.852375496721,0.337056093338,-0.379951188748,0.124443950044
1498555035990490438,-0.246905859375,-0.382637109375,0.0716607421875,-0.848495758452,0.331980388281,-0.386337348137,0.143483180618
1498555036011014142,-0.245119921875,-0.382748730469,0.0713258789063,-0.843430418401,0.330053332243,-0.39253633128,0.160016111116
1498555036031014780,-0.245901269531,-0.383530078125,0.068312109375,-0.837334263662,0.331414059023,-0.398585697678,0.173682163694
1498555036050759263,-0.24735234375,-0.38486953125,0.0639588867187,-0.830116853265,0.334046721857,-0.404600876308,0.188724477565
1498555036070708084,-0.248803417969,-0.386097363281,0.0606102539062,-0.824788163146,0.336960360922,-0.408372658281,0.198529526947
1498555036090646323,-0.24913828125,-0.386097363281,0.0583778320312,-0.820965883389,0.34072248196,-0.409524495195,0.205457772871
1498555036110793290,-0.248915039063,-0.385539257812,0.05625703125,-0.817054892357,0.345452790697,-0.410054367384,0.21198841493
1498555036130464859,-0.248915039063,-0.384534667969,0.0536897460937,-0.811838828539,0.351096855865,-0.411828618561,0.219193757239
1498555036150224338,-0.25003125,-0.381967382812,0.0507875976563,-0.80252624679,0.360577572574,-0.417253075214,0.227673688848
1498555036170264163,-0.252486914062,-0.378730371094,0.0471041015625,-0.790159269677,0.372518906531,-0.426468425147,0.23452649141
1498555036190236376,-0.254049609375,-0.376386328125,0.0428625,-0.777995336675,0.383578496149,-0.434901437646,0.241767518368
1498555036210640353,-0.253937988281,-0.375604980469,0.039290625,-0.769188341835,0.391706155171,-0.439641557507,0.248255682107
1498555036230338127,-0.253603125,-0.376051464844,0.0350490234375,-0.76157091229,0.396738275381,-0.442893908834,0.257785709298
1498555036250389814,-0.253156640625,-0.37772578125,0.028128515625,-0.750456839749,0.402876642666,-0.446981247811,0.273336251846
1498555036270374492,-0.254161230469,-0.378730371094,0.0199801757812,-0.736741313676,0.410464947787,-0.452906689257,0.289147530143
1498555036290378026,-0.255612304687,-0.377167675781,0.0142875,-0.723250486715,0.419856738402,-0.460071301026,0.298267414675
1498555036310818154,-0.257175,-0.374600390625,0.01339453125,-0.714275027704,0.429007583208,-0.466322420981,0.297165068671
1498555036330272409,-0.2589609375,-0.372256347656,0.012948046875,-0.706763779019,0.436803600539,-0.471802046492,0.295110833669
1498555036350328715,-0.26163984375,-0.370135546875,0.0103807617187,-0.695794825053,0.44746915698,-0.47789631647,0.295391309427
1498555036370251902,-0.264653613281,-0.368126367187,0.0051345703125,-0.681517174416,0.460080155834,-0.484808920981,0.29802835657
1498555036390428502,-0.266327929687,-0.3661171875,0.0006697265625,-0.668556876897,0.471909780885,-0.490987318839,0.298771340324
1498555036410795630,-0.267220898438,-0.364889355469,0.00234404296875,-0.663304520985,0.479601748434,-0.497137999751,0.287859487498
1498555036430157991,-0.266439550781,-0.364219628906,0.0069205078125,-0.663840755538,0.481540136502,-0.502144023592,0.274382812501
1498555036450375603,-0.265769824219,-0.363215039062,0.0114969726562,-0.662681480263,0.485057471983,-0.507700528326,0.260408675213
1498555036470370579,-0.266551171875,-0.361094238281,0.0108272460937,-0.654469780359,0.492556403158,-0.514973655104,0.252704631644
1498555036490573710,-0.267555761719,-0.358192089844,0.00479970703125,-0.64071922172,0.504164604643,-0.521033483016,0.252628264294
1498555036510800292,-0.268671972656,-0.355848046875,0.0006697265625,-0.629561931501,0.515224880213,-0.526486379606,0.246996334596
1498555036530349907,-0.269453320313,-0.353950488281,0.0002232421875,-0.622920578317,0.521858750349,-0.533033447339,0.235602932519
1498555036550316654,-0.27056953125,-0.352052929687,0.0020091796875,-0.61657426461,0.528163658234,-0.54241347554,0.216025340861
1498555036569977957,-0.272690332031,-0.349597265625,0.00279052734375,-0.607596341842,0.536250897477,-0.552002238946,0.196354751745
1498555036589935109,-0.273360058594,-0.347029980469,0.00346025390625,-0.599873096169,0.542285953224,-0.560087432729,0.179945217016
1498555036610743073,-0.2732484375,-0.345802148437,0.0046880859375,-0.594798998382,0.54589839223,-0.566569392083,0.16494914622
1498555036630319727,-0.272690332031,-0.344239453125,0.0051345703125,-0.590192938238,0.548459496281,-0.571710322495,0.154957361058
1498555036650360084,-0.271908984375,-0.343458105469,0.00546943359375,-0.586882099668,0.550492094558,-0.57610006989,0.143654322562
1498555036670291654,-0.271685742188,-0.3429,0.0064740234375,-0.58539293524,0.552571455674,-0.579121191426,0.12883533439
1498555036690401913,-0.270904394531,-0.341560546875,0.00859482421875,-0.586340717701,0.553914482848,-0.5804711644,0.111519216983
1498555036710940082,-0.270011425781,-0.340667578125,0.0113853515625,-0.588531736272,0.554315625985,-0.581080374374,0.0933283488952
1498555036730309152,-0.269341699219,-0.339551367187,0.013841015625,-0.58995980546,0.553815170541,-0.582189720549,0.0793178044825
1498555036750347953,-0.268337109375,-0.338881640625,0.0166315429687,-0.592530490976,0.552633145306,-0.582460742625,0.0651437431634
1498555036770310771,-0.267332519531,-0.338323535156,0.01875234375,-0.595054422326,0.551657031066,-0.581922255983,0.0543253397432
1498555036790085081,-0.26699765625,-0.336984082031,0.02143125,-0.598777818722,0.551129523291,-0.579497497737,0.0436351060382
1498555036810411870,-0.26699765625,-0.33575625,0.0251147460938,-0.604689730278,0.549846157579,-0.575326763756,0.0319162653995
1498555036829962537,-0.266774414063,-0.335309765625,0.0286866210937,-0.611568519243,0.547270865716,-0.570904145555,0.0233880823822
1498555036850374049,-0.264988476563,-0.33575625,0.034379296875,-0.625934679246,0.540765605626,-0.561780108857,0.0134702035037
1498555036870326774,-0.26163984375,-0.337430566406,0.0402952148437,-0.645570781917,0.532770268013,-0.547133360199,0.0062684300378
1498555036890293296,-0.256505273437,-0.339997851563,0.0449833007812,-0.669776548886,0.524004565988,-0.526122185677,0.00374634816791
1498555036910909219,-0.25271015625,-0.3429,0.0483319335937,-0.690747220384,0.517040851421,-0.505498428205,0.00289388592739
1498555036930370815,-0.251593945312,-0.343904589844,0.0515689453125,-0.703671819586,0.513758539888,-0.490812128035,-0.00126015364329
1498555036950407792,-0.250366113281,-0.345020800781,0.0569267578125,-0.719518336068,0.509149964102,-0.472205793804,-0.00902033344411
1498555036970239576,-0.249473144531,-0.34557890625,0.06161484375,-0.731849466586,0.5061425164,-0.456005477273,-0.0165866225521
1498555036990296915,-0.248691796875,-0.345802148437,0.0641821289062,-0.740834300664,0.504449599458,-0.443037300477,-0.0203246390298
1498555037010386613,-0.248468554687,-0.34736484375,0.064740234375,-0.747606064796,0.503266614602,-0.432855109422,-0.0210793916823
1498555037030389054,-0.248468554687,-0.3482578125,0.0650750976562,-0.752430421609,0.501624334708,-0.42630901324,-0.0219570648446
1498555037050058651,-0.247575585937,-0.35004375,0.0668610351562,-0.760168001596,0.496293603857,-0.418560197016,-0.0253895567961
1498555037070208781,-0.24556640625,-0.3518296875,0.07054453125,-0.769198549407,0.487160670122,-0.412253679409,-0.03248040779
1498555037090199979,-0.243557226562,-0.353057519531,0.0747861328125,-0.777367604083,0.478084737392,-0.406801484161,-0.040585027772
1498555037110875855,-0.243333984375,-0.354731835937,0.0775766601563,-0.783261677847,0.471763641929,-0.402403220555,-0.0448537429563
1498555037129889010,-0.244003710937,-0.356629394531,0.0784696289062,-0.787101574298,0.467846392638,-0.399532166912,-0.0443273305832
1498555037149841776,-0.24556640625,-0.359419921875,0.0800323242187,-0.792136515621,0.461980206093,-0.396515004891,-0.0432421171352
1498555037170312686,-0.246794238281,-0.361429101562,0.0823763671875,-0.79672960725,0.45519664197,-0.395285759942,-0.0420371033471
1498555037190322077,-0.247687207031,-0.3625453125,0.0840506835937,-0.800467030718,0.450206137395,-0.393749119364,-0.0390972836173
1498555037210811612,-0.248803417969,-0.363996386719,0.0833809570312,-0.803283026976,0.448315010969,-0.390726940974,-0.032901171854
1498555037230208084,-0.249808007812,-0.36522421875,0.0824879882812,-0.805252524407,0.447669143625,-0.387776636325,-0.028106762586
1498555037250288528,-0.248803417969,-0.367903125,0.0839390625,-0.811352879991,0.44139715668,-0.382399757996,-0.0254062844447
1498555037270135530,-0.24735234375,-0.370135546875,0.0867295898437,-0.818047593315,0.43297635852,-0.377787321882,-0.0246241235238
1498555037290254406,-0.246459375,-0.371586621094,0.0885155273437,-0.82401125108,0.426343299182,-0.372565020074,-0.0207883417799
1498555037310802575,-0.246347753906,-0.373149316406,0.0880690429687,-0.828609752724,0.422261503307,-0.367343111503,-0.0126546018074
1498555037330245062,-0.246905859375,-0.373707421875,0.0868412109375,-0.83059089525,0.421277715793,-0.364182211813,-0.00389454789509
1498555037350212568,-0.247463964844,-0.375158496094,0.0859482421875,-0.833284544987,0.418921679429,-0.360699462758,0.00611483079107
1498555037369962456,-0.249919628906,-0.375381738281,0.086171484375,-0.833282194088,0.419339372071,-0.360040108213,0.0128994777318
1498555037389998390,-0.251259082031,-0.374935253906,0.0853901367187,-0.832733161689,0.419187781375,-0.360927621561,0.0238398272645
1498555037410741456,-0.252040429688,-0.375493359375,0.082153125,-0.830938395419,0.418421509536,-0.364091214103,0.0436166388984
1498555037430347819,-0.253491503906,-0.376274707031,0.0777999023437,-0.826333839379,0.419288439674,-0.370323598427,0.0650386246824
1498555037450342460,-0.255277441406,-0.37861875,0.072776953125,-0.818948794516,0.419233043376,-0.381016635525,0.0916125032728
1498555037470016609,-0.25628203125,-0.37951171875,0.0688702148437,-0.810793578656,0.420020830418,-0.392176551273,0.111327568273
1498555037489852077,-0.254719335937,-0.37861875,0.0640705078125,-0.802643386556,0.422110002565,-0.400615865464,0.130742755407
1498555037510858933,-0.253826367187,-0.377949023437,0.057596484375,-0.79256623423,0.426088597371,-0.40890669775,0.151929536575
1498555037530344560,-0.25449609375,-0.376944433594,0.0529083984375,-0.783383931879,0.430255900731,-0.416552064357,0.166354599695
1498555037549948539,-0.257398242188,-0.375828222656,0.04732734375,-0.770675597308,0.437586508335,-0.42660224682,0.180520620555
1498555037570359905,-0.260300390625,-0.373819042969,0.0436438476562,-0.759474511599,0.444461346751,-0.436257881642,0.187967119947
1498555037589985308,-0.261304980469,-0.372033105469,0.0410765625,-0.750827303226,0.448965931913,-0.444421247555,0.192815215773
1498555037610816300,-0.261193359375,-0.370693652344,0.0385092773438,-0.742460220512,0.452083005795,-0.453046466133,0.197794530644
1498555037630040725,-0.260858496094,-0.369019335937,0.0360536132813,-0.734413652855,0.455130303889,-0.461287719498,0.20175884819
1498555037649958282,-0.260746875,-0.367456640625,0.033486328125,-0.724501782742,0.46006508849,-0.470929199845,0.204115089813
1498555037670184292,-0.261528222656,-0.3661171875,0.0314771484375,-0.714751576664,0.467483197319,-0.479591538084,0.201448753977
1498555037690289232,-0.262086328125,-0.364554492187,0.0284633789062,-0.703053931139,0.476927181517,-0.487755395165,0.20087386074
1498555037710874289,-0.26342578125,-0.363215039062,0.0237752929687,-0.688131192732,0.487526332185,-0.497226788399,0.203860388291
1498555037730335354,-0.263983886719,-0.361317480469,0.0188639648438,-0.67459758002,0.495896817441,-0.505739608765,0.207922821278
1498555037750301901,-0.26431875,-0.358526953125,0.0126131835937,-0.657794210619,0.505430233063,-0.516967312121,0.211167834154
1498555037769979018,-0.266216308594,-0.355066699219,0.0082599609375,-0.642056680158,0.51518658207,-0.528946116341,0.206305625534
1498555037790389558,-0.268002246094,-0.352052929687,0.00569267578125,-0.628905260181,0.523075679917,-0.539711067448,0.198952181368
1498555037810612759,-0.269341699219,-0.350825097656,0.0055810546875,-0.620216951535,0.527632337196,-0.548791042164,0.1891122466
1498555037830289796,-0.269788183594,-0.350378613281,0.00569267578125,-0.614991404814,0.529701307558,-0.555273197649,0.181311259299
1498555037850034600,-0.270792773437,-0.349932128906,0.00524619140625,-0.607501715354,0.533952175188,-0.562707490254,0.17087135765
1498555037870159029,-0.272243847656,-0.348815917969,0.00446484375,-0.598144577995,0.539693862279,-0.570820288255,0.158485953159
1498555037890221268,-0.273918164063,-0.347029980469,0.0015626953125,-0.585718131015,0.547465262445,-0.578354496585,0.150738627089
1498555037910691650,-0.274811132812,-0.345355664062,-0.0015626953125,-0.574726676368,0.554776041686,-0.583724051122,0.145530145275
1498555037930327231,-0.274699511719,-0.343681347656,-0.00301376953125,-0.568693348024,0.559060956777,-0.58680260721,0.140361756518
1498555037949952417,-0.274253027344,-0.340890820312,-0.00189755859375,-0.56298870138,0.56328135604,-0.591435062503,0.126342403411
1498555037970290485,-0.273471679688,-0.337765429688,0.002232421875,-0.55895963728,0.564395790821,-0.598677093077,0.102991521114
1498555037990119412,-0.271908984375,-0.334751660156,0.00368349609375,-0.552182312376,0.56746281391,-0.604848365738,0.085082919516
1498555038010873937,-0.271350878906,-0.333523828125,0.00301376953125,-0.545527650768,0.571050857054,-0.609012088297,0.0735171899236
1498555038030165878,-0.27056953125,-0.332965722656,0.0029021484375,-0.543307136834,0.572102949705,-0.610922620198,0.0654913897727
1498555038050385767,-0.270346289062,-0.332519238281,0.00479970703125,-0.543845608003,0.572302174045,-0.611585338383,0.0516289658557
1498555038070354849,-0.270346289062,-0.331849511719,0.00703212890625,-0.545246803595,0.572720249803,-0.610993265696,0.0372111261549
1498555038090415199,-0.268560351562,-0.330956542969,0.00881806640625,-0.547621386265,0.572713534881,-0.609429964877,0.026554513347
1498555038110879660,-0.266662792969,-0.3303984375,0.010715625,-0.550547180196,0.572122304095,-0.607681422373,0.0172383421092
1498555038130461739,-0.264876855469,-0.329951953125,0.0123899414062,-0.55366671547,0.571414979084,-0.605667416138,0.0102504091807
1498555038150435256,-0.262867675781,-0.32950546875,0.0152920898437,-0.558399243425,0.570392068149,-0.602364590772,0.000270775069109
1498555038170459733,-0.261528222656,-0.328947363281,0.017859375,-0.562467670101,0.569720279152,-0.599156766204,-0.00775197555706
1498555038190401664,-0.260188769531,-0.3286125,0.0202034179687,-0.568122565068,0.568050255418,-0.595319243764,-0.012274216275
1498555038211063191,-0.259630664063,-0.3286125,0.02232421875,-0.574516255124,0.56734187991,-0.589761452259,-0.0153523069349
1498555038230314596,-0.259295800781,-0.328724121094,0.0246682617188,-0.582431011827,0.567166831298,-0.582010544149,-0.0189638718853
1498555038250277664,-0.25806796875,-0.329393847656,0.030807421875,-0.600833249553,0.566661565437,-0.563059248343,-0.0292977702926
1498555038270262046,-0.256170410156,-0.330510058594,0.037951171875,-0.619961310366,0.565985721153,-0.541806527824,-0.041878676052
1498555038290436136,-0.254272851563,-0.331961132812,0.0435322265625,-0.635093111611,0.563834546287,-0.525592475778,-0.0499989340209
1498555038310780619,-0.253491503906,-0.3339703125,0.046880859375,-0.647136515395,0.562781446615,-0.511451922771,-0.0539286981311
1498555038330324839,-0.253714746094,-0.335533007813,0.0487784179688,-0.655897503792,0.563087973754,-0.499688197988,-0.0551552637972
1498555038350380292,-0.253379882813,-0.338100292969,0.0512340820312,-0.668768479219,0.562537223975,-0.482854406672,-0.0561445883726
1498555038370347711,-0.252821777344,-0.34022109375,0.054024609375,-0.681512334371,0.561033508212,-0.466395937357,-0.057071625004
1498555038390341965,-0.251035839844,-0.340890820312,0.0583778320312,-0.694847527741,0.556992822381,-0.450872021207,-0.0605006570302
1498555038410965404,-0.248691796875,-0.342118652344,0.0619497070313,-0.707810779207,0.552206450806,-0.436103654487,-0.0623340923666
1498555038430202108,-0.246905859375,-0.343569726562,0.0641821289062,-0.71731786379,0.548328172546,-0.425317129006,-0.0624230506591
1498555038450403851,-0.245231542969,-0.346695117188,0.065633203125,-0.728933944415,0.542550982088,-0.413030832549,-0.0608216070125
1498555038470252813,-0.244896679687,-0.34915078125,0.0670842773437,-0.737738778892,0.53789741141,-0.403252409438,-0.0616065191308
1498555038490236768,-0.244115332031,-0.350490234375,0.069205078125,-0.745665284729,0.53249441802,-0.395398013701,-0.0639795958747
1498555038510756630,-0.242775878906,-0.352945898437,0.0707677734375,-0.754068123052,0.525259897718,-0.389258315612,-0.0629386159231
1498555038530361056,-0.241771289062,-0.354955078125,0.0721072265625,-0.760705926083,0.518812575669,-0.385349675859,-0.0605444684916
1498555038550455828,-0.241436425781,-0.357857226562,0.0744512695312,-0.769071821863,0.509731097685,-0.381388001067,-0.0569730946209
1498555038570406873,-0.243110742188,-0.360089648437,0.0766836914062,-0.774866325349,0.503261512694,-0.378781558778,-0.0532405710996
1498555038590410773,-0.2446734375,-0.361429101562,0.0770185546875,-0.779128744834,0.499825377803,-0.375614137275,-0.0452439007666
1498555038610869241,-0.246012890625,-0.363549902344,0.074562890625,-0.782463914181,0.498227719603,-0.372174691244,-0.0317074379457
1498555038630399025,-0.247240722656,-0.365000976563,0.072776953125,-0.784366752833,0.497632052772,-0.369634306166,-0.0223968035799
1498555038650407073,-0.2482453125,-0.365559082031,0.0747861328125,-0.787599626353,0.493971828018,-0.367786179956,-0.0202974758594
1498555038670331926,-0.249919628906,-0.365112597656,0.0782463867187,-0.789424534869,0.490342143317,-0.368605038177,-0.0224457582677
1498555038690167183,-0.250254492187,-0.364666113281,0.0798090820313,-0.790726104793,0.486818116816,-0.370662745215,-0.019221801372
1498555038710965957,-0.249473144531,-0.366563671875,0.0777999023437,-0.792379846722,0.482558822731,-0.373129112637,-0.00676952110682
1498555038730349242,-0.248915039063,-0.36879609375,0.0748977539063,-0.792837288432,0.479886459807,-0.375598240474,0.00663185637565
1498555038750449363,-0.248803417969,-0.371809863281,0.07054453125,-0.791979821557,0.478149354097,-0.378871970604,0.0244374162711
1498555038770291711,-0.249808007812,-0.37236796875,0.0670842773437,-0.788132409505,0.47882278678,-0.384725264834,0.0395286547538
1498555038790319513,-0.251705566406,-0.370693652344,0.06429375,-0.781046999602,0.481655143268,-0.393823064284,0.0536404829747
1498555038810731452,-0.2553890625,-0.369242578125,0.061168359375,-0.770839978381,0.48528618555,-0.406962902834,0.0684415192769
1498555038830322958,-0.258291210938,-0.368237988281,0.0590475585938,-0.761718176288,0.487776408452,-0.419012393877,0.0792982285253
1498555038850471363,-0.259965527344,-0.367345019531,0.05804296875,-0.752715262891,0.488513889622,-0.432271859543,0.0889660165702
1498555038870276609,-0.260523632813,-0.366340429687,0.0552524414062,-0.742990054989,0.490023050339,-0.444510900073,0.101258323312
1498555038890246877,-0.260970117187,-0.365112597656,0.0494481445312,-0.730500588792,0.494781978228,-0.455527987287,0.118549300269
1498555038910857626,-0.262086328125,-0.364219628906,0.0425276367187,-0.716972456007,0.500480834365,-0.466125968336,0.134892599511
1498555038930063028,-0.262867675781,-0.362991796875,0.0381744140625,-0.707212324214,0.504853136478,-0.473718441961,0.143404591329
1498555038950374941,-0.263649023437,-0.361875585937,0.036165234375,-0.699155501822,0.50803233012,-0.481440835329,0.145943337985
1498555038970369961,-0.263983886719,-0.360870996094,0.0342676757812,-0.691969583456,0.5107472468,-0.488348686897,0.147752852641
1498555038990428658,-0.263872265625,-0.359978027344,0.0306958007813,-0.683496625027,0.51439355733,-0.494876072246,0.152739336361
1498555039010793748,-0.264430371094,-0.358526953125,0.0269006835937,-0.6734083375,0.51970873423,-0.502091618327,0.155974515087
1498555039030371034,-0.265546582031,-0.356517773437,0.02411015625,-0.664401974403,0.525049234671,-0.508333034267,0.156495507458
1498555039050492040,-0.267555761719,-0.353727246094,0.022770703125,-0.65287643882,0.532191425638,-0.517325316656,0.151324680266
1498555039070513773,-0.269006835938,-0.351159960938,0.0210963867187,-0.640055148447,0.53901155156,-0.527630459278,0.146294404106
1498555039090348991,-0.269118457031,-0.34915078125,0.0176361328125,-0.627825689588,0.545214494844,-0.535713412148,0.146925825334
1498555039110949889,-0.269453320313,-0.348146191406,0.0149572265625,-0.618977237128,0.549942435985,-0.541618862079,0.145187827523
1498555039130346328,-0.2696765625,-0.347253222656,0.01339453125,-0.612887461266,0.553446986753,-0.545913492539,0.141576309248
1498555039150412192,-0.271016015625,-0.345690527344,0.01160859375,-0.603527211415,0.559147788521,-0.552201768971,0.134840135047
1498555039170466403,-0.271908984375,-0.34379296875,0.00982265625,-0.593561307593,0.5631295483,-0.560374074737,0.12865062115
1498555039190351719,-0.2714625,-0.3429,0.007590234375,-0.585028822781,0.56455016684,-0.568475829903,0.125934969141
1498555039210752251,-0.270904394531,-0.342676757813,0.0051345703125,-0.577018655313,0.566212433434,-0.575697914772,0.122575946139
1498555039230192278,-0.271239257813,-0.342118652344,0.00368349609375,-0.570698008593,0.569176855793,-0.580420679441,0.115988467938
1498555039250296355,-0.271797363281,-0.341225683594,0.00256728515625,-0.562645000387,0.573798635757,-0.586036722807,0.103666236861
1498555039270406710,-0.273025195312,-0.339328125,0.00256728515625,-0.552115015631,0.577879804269,-0.59455617741,0.0879027487412
1498555039290312964,-0.272801953125,-0.336872460937,0.00212080078125,-0.541154246367,0.580646276774,-0.603528048678,0.0758674987439
1498555039310883142,-0.271574121094,-0.334974902344,0.00078134765625,-0.530959283009,0.583499157811,-0.610943609918,0.0660218003429
1498555039330361664,-0.270123046875,-0.333635449219,0.000446484375,-0.525845533048,0.584808615075,-0.615013469613,0.0569542913475
1498555039349988302,-0.267109277344,-0.333300585938,0.00033486328125,-0.523705158142,0.584922069093,-0.617650279955,0.0459043799066
1498555039369999107,-0.26521171875,-0.331961132812,0.000446484375,-0.521021739054,0.584819163674,-0.620762216051,0.0343098288601
1498555039390083289,-0.263202539062,-0.330510058594,0.00089296875,-0.520185199154,0.583484557051,-0.623129750941,0.0257379827619
1498555039410726287,-0.2625328125,-0.329170605469,0.00100458984375,-0.51803636405,0.583488739797,-0.625210367211,0.0170649577719
1498555039430511979,-0.262644433594,-0.327607910156,0.00145107421875,-0.516155743145,0.584643154738,-0.625855416054,0.00897934476232
1498555039450162614,-0.261528222656,-0.326268457031,0.00346025390625,-0.518712138367,0.584245621469,-0.62417088703,-0.00233989086379
1498555039470517576,-0.260970117187,-0.324817382812,0.00569267578125,-0.521421292842,0.584312495613,-0.621704100798,-0.0135186497989
1498555039490351402,-0.259742285156,-0.323366308594,0.00792509765625,-0.525715981742,0.582786740669,-0.619275798932,-0.0219044812452
1498555039510792319,-0.258737695312,-0.322138476562,0.0104923828125,-0.530822636725,0.579719767233,-0.617465376179,-0.0298132359715
1498555039530342836,-0.258179589844,-0.321022265625,0.0135061523437,-0.535334627187,0.576724869169,-0.615952754385,-0.0375162175876
1498555039550249207,-0.257733105469,-0.320464160156,0.0177477539063,-0.542529841323,0.572753737493,-0.61270260242,-0.0470111523939
1498555039570381838,-0.257733105469,-0.321022265625,0.0208731445312,-0.549595910842,0.571381257213,-0.607131004661,-0.0534765076471
1498555039590354738,-0.257175,-0.322919824219,0.0232171875,-0.559688741266,0.571194389984,-0.597805899205,-0.0557995396684
1498555039610820967,-0.255054199219,-0.325598730469,0.0267890625,-0.577707816389,0.56932990324,-0.582237150558,-0.0558304636427
1498555039630379105,-0.252040429688,-0.326491699219,0.032146875,-0.597238731283,0.565232128574,-0.566141290513,-0.0574680594729
1498555039650160194,-0.249026660156,-0.327384667969,0.039737109375,-0.619531684936,0.559464522625,-0.547195912466,-0.0612908856548
1498555039670382685,-0.248356933594,-0.3286125,0.0454297851562,-0.634954053565,0.558022297795,-0.530222510379,-0.0656395803763
1498555039689987792,-0.24735234375,-0.330844921875,0.0490016601562,-0.649004360752,0.559020611368,-0.511651488345,-0.067097319357
1498555039710898019,-0.24556640625,-0.333858691406,0.0529083984375,-0.663389596404,0.558451923115,-0.493021296714,-0.0705385989257
1498555039730487890,-0.244896679687,-0.33575625,0.0555873046875,-0.672630257386,0.558462490651,-0.479789492258,-0.0740960626714
1498555039749975999,-0.2446734375,-0.337988671875,0.0577081054687,-0.681465321372,0.558686524373,-0.466442576987,-0.0768485889583
1498555039769962512,-0.244338574219,-0.339662988281,0.0588243164063,-0.688435677877,0.557793297251,-0.456930111725,-0.0783442912245
1498555039790573476,-0.243222363281,-0.341002441406,0.0594940429687,-0.69515661902,0.555432247085,-0.44975286395,-0.0772958944617
1498555039810616159,-0.242664257812,-0.34200703125,0.0606102539062,-0.7004925884,0.552963359359,-0.444541564858,-0.0769704743216
1498555039830568191,-0.242999121094,-0.342341894531,0.0622845703125,-0.703645206402,0.551105200503,-0.441660202493,-0.0781200807675
1498555039850566992,-0.244338574219,-0.34379296875,0.06429375,-0.707336430711,0.548362407976,-0.439082453617,-0.0786157887023
1498555039870692835,-0.246459375,-0.346360253906,0.0649634765625,-0.710547467714,0.546397231728,-0.437122519286,-0.0741367953063
1498555039890121725,-0.2482453125,-0.349374023438,0.06429375,-0.714227404526,0.545276604081,-0.434037964183,-0.0645266248432
1498555039910998269,-0.249361523437,-0.351606445313,0.0636240234375,-0.718251193789,0.543975403403,-0.430357068612,-0.0547610866344
1498555039930119805,-0.25003125,-0.3518296875,0.06340078125,-0.720633279762,0.543936761366,-0.427161803712,-0.0485105059037
1498555039950703633,-0.250366113281,-0.353057519531,0.0635124023437,-0.724877365702,0.542987754314,-0.421900694947,-0.041435576031
1498555039970027521,-0.251259082031,-0.354955078125,0.0626194335937,-0.728872419306,0.541789476261,-0.417364462494,-0.0318757781753
1498555039989944047,-0.251705566406,-0.356741015625,0.0615032226562,-0.732823773254,0.539581123408,-0.413969882397,-0.0212241627465
1498555040011024260,-0.252152050781,-0.357968847656,0.0609451171875,-0.734852456482,0.536835414625,-0.414303189009,-0.0123479708342
1498555040030127550,-0.252375292969,-0.358192089844,0.0610567382813,-0.73497898616,0.534998962386,-0.416569289946,-0.00721296218486
1498555040050542650,-0.253491503906,-0.358861816406,0.0599405273438,-0.732686441448,0.535159024403,-0.420445862851,0.000820688524483
1498555040070667121,-0.2553890625,-0.35986640625,0.0564802734375,-0.72738717629,0.537725598801,-0.42613027144,0.0131174664694
1498555040090431989,-0.257398242188,-0.360312890625,0.0517921875,-0.719825286741,0.540870229143,-0.434161172023,0.0285487040519
1498555040111050552,-0.258402832031,-0.35986640625,0.0484435546875,-0.711950362394,0.541473438722,-0.445105709038,0.0425923047915
1498555040130562708,-0.258291210938,-0.358526953125,0.0474389648438,-0.706496471137,0.539653285998,-0.455048032753,0.0506789410964
1498555040150715505,-0.257956347656,-0.356964257812,0.0472157226562,-0.70023993324,0.537122784526,-0.466729737185,0.0576758412697
1498555040170551708,-0.259072558594,-0.355736425781,0.0445368164062,-0.690892285224,0.537831941644,-0.478400928092,0.06735877646
1498555040190080263,-0.260858496094,-0.354731835937,0.0400719726562,-0.680091714146,0.54105832914,-0.488492101361,0.0781448125325
1498555040210747904,-0.262756054688,-0.353838867188,0.0358303710937,-0.670092856304,0.544842148636,-0.496764937567,0.0857157733653
1498555040230429919,-0.263872265625,-0.352276171875,0.03303984375,-0.66248110198,0.548028346217,-0.502709471493,0.089815970372
1498555040250371818,-0.26521171875,-0.350713476562,0.0305841796875,-0.654280319525,0.551290271758,-0.509472200189,0.0918388642223
1498555040270000861,-0.266551171875,-0.349485644531,0.0286866210937,-0.646208772058,0.553808285221,-0.516808473129,0.0928418452953
1498555040290255216,-0.267444140625,-0.348704296875,0.027235546875,-0.638951127975,0.555295524984,-0.524006741126,0.0938364068329
1498555040310556529,-0.268002246094,-0.347699707031,0.02589609375,-0.63188134687,0.557409355875,-0.530278490784,0.0939441093099
1498555040330514507,-0.267667382812,-0.346025390625,0.0252263671875,-0.626547785599,0.559578940993,-0.534480944225,0.0929483803965
1498555040350290598,-0.266774414063,-0.344239453125,0.0246682617188,-0.620286011373,0.561643174801,-0.539890642543,0.0912156915768
1498555040370282279,-0.266216308594,-0.343234863281,0.022770703125,-0.612634554959,0.563210186761,-0.546856723971,0.091765522095
1498555040390293781,-0.266216308594,-0.343123242187,0.01875234375,-0.602964580721,0.566337977995,-0.553590299974,0.0960874021465
1498555040410614643,-0.267890625,-0.342676757813,0.0126131835937,-0.589378591187,0.573753522959,-0.559748207527,0.10060673592
1498555040430227723,-0.269118457031,-0.341560546875,0.00792509765625,-0.577401512785,0.580881210873,-0.564417006627,0.103043459366
1498555040450298087,-0.269453320313,-0.340667578125,0.0037951171875,-0.565166332353,0.588134564119,-0.569402846744,0.102299312721
1498555040470290015,-0.268337109375,-0.339551367187,0.00145107421875,-0.556044224787,0.591040483924,-0.575900190368,0.0991208211149
1498555040490244765,-0.266327929687,-0.338546777344,0.00033486328125,-0.549408601038,0.591480975283,-0.582575204481,0.0943746581842
1498555040510660865,-0.265323339844,-0.336984082031,-0.00033486328125,-0.540992504314,0.59378342967,-0.589410967056,0.0856916614345
1498555040530416985,-0.265434960937,-0.334528417969,-0.00033486328125,-0.532506800779,0.597506731777,-0.594826118387,0.0748605469548
1498555040550395867,-0.26699765625,-0.332072753906,-0.00078134765625,-0.51966047551,0.603667496636,-0.601627532842,0.0598569580291
1498555040570009092,-0.268671972656,-0.330621679688,-0.0024556640625,-0.506307332738,0.607848145324,-0.609882931704,0.0470778786459
1498555040590326790,-0.268895214844,-0.329393847656,-0.00368349609375,-0.495074350778,0.610240869953,-0.617517686072,0.0343420329625
1498555040610634727,-0.268225488281,-0.327607910156,-0.00412998046875,-0.485778428449,0.613311795736,-0.622491690636,0.0192887209051
1498555040630364007,-0.267332519531,-0.325487109375,-0.00390673828125,-0.479351933764,0.616443481166,-0.624616729795,0.00854979443386
1498555040650323631,-0.266216308594,-0.3232546875,-0.00346025390625,-0.473430775387,0.61949027796,-0.626160507391,-0.00425622043158
1498555040670074256,-0.265993066406,-0.32057578125,-0.00368349609375,-0.465636811186,0.622417368616,-0.628938448595,-0.0146767568756
1498555040690360884,-0.265100097656,-0.318566601562,-0.0037951171875,-0.460600892829,0.62324468624,-0.631556929954,-0.0234248335445
1498555040710666213,-0.263649023437,-0.318120117187,-0.00279052734375,-0.460238050147,0.621702467413,-0.632857035109,-0.0340433888
1498555040730387070,-0.262644433594,-0.317338769531,-0.001339453125,-0.46086768596,0.620640446254,-0.632843052369,-0.0437730919608
1498555040750292315,-0.261193359375,-0.317562011719,0.0002232421875,-0.462907136951,0.619408595943,-0.6317976542,-0.0536814491233
1498555040770251606,-0.259519042969,-0.31700390625,0.00145107421875,-0.463700944964,0.618873202382,-0.631081720053,-0.0609364884773
1498555040790306146,-0.256840136719,-0.316892285156,0.003125390625,-0.466108548933,0.617589154888,-0.629911473855,-0.0673646159478
1498555040810725511,-0.25449609375,-0.316892285156,0.0055810546875,-0.469153580921,0.615763930788,-0.628348196503,-0.0768650961164
1498555040830327544,-0.253603125,-0.3161109375,0.0078134765625,-0.470993107144,0.615249960332,-0.626238352226,-0.0863626396992
1498555040850235688,-0.253603125,-0.315776074219,0.00926455078125,-0.472393429746,0.617851444057,-0.621282825669,-0.0954551786846
1498555040870059334,-0.254049609375,-0.315329589844,0.00993427734375,-0.472873817056,0.621125627512,-0.616683025834,-0.101466022088
1498555040890324077,-0.253937988281,-0.315776074219,0.0108272460937,-0.474517946981,0.622815682695,-0.613094622314,-0.105111024504
1498555040910638911,-0.253379882813,-0.316334179687,0.012948046875,-0.477658629765,0.622290551001,-0.610451377057,-0.109296934058
1498555040930308339,-0.252375292969,-0.316780664062,0.0154037109375,-0.4817686464,0.620913137384,-0.607900061538,-0.113240285908
1498555040950087277,-0.250589355469,-0.317338769531,0.01875234375,-0.488479356894,0.619212670722,-0.603370028413,-0.11793301115
1498555040970234680,-0.249026660156,-0.317896875,0.0208731445312,-0.496007716781,0.619277441209,-0.597042291894,-0.118373550229
1498555040990275057,-0.247129101562,-0.319124707031,0.0228823242187,-0.50680446473,0.619042984095,-0.588687801093,-0.115679260097
1498555041010690691,-0.245454785156,-0.320910644531,0.0260077148437,-0.519871296344,0.618620186067,-0.57801752469,-0.113748150664
1498555041030334358,-0.2446734375,-0.322138476562,0.0277936523437,-0.5288516432,0.620633296092,-0.568084102664,-0.111403337325
1498555041050039558,-0.244226953125,-0.323812792969,0.0291331054688,-0.538365474729,0.624124847295,-0.556018286375,-0.107118886408
1498555041070350825,-0.244450195313,-0.324929003906,0.0303609375,-0.546553857379,0.62703442297,-0.54544841157,-0.102921055723
1498555041090335461,-0.244338574219,-0.326045214844,0.0337095703125,-0.556839077381,0.626097436137,-0.536141937424,-0.102391724754
1498555041110620563,-0.244115332031,-0.327049804688,0.0376163085938,-0.567936141083,0.623672043967,-0.5270523285,-0.103429030004
1498555041130344789,-0.243668847656,-0.326714941406,0.0405184570312,-0.576315396613,0.622290504035,-0.519564531602,-0.10328499269
1498555041150036285,-0.243445605469,-0.327384667969,0.0430857421875,-0.586436295624,0.620776784286,-0.510381105256,-0.101191811251
1498555041170296271,-0.243333984375,-0.328835742188,0.0449833007812,-0.595981649693,0.618640500537,-0.502464555976,-0.0980773894054
