rosbagTimestamp,x,y,z,x,y,z,w
1498556243989474259,-0.0652983398437,-0.382302246094,0.100793847656,0.0949674165567,-0.0205805973422,0.114646219144,0.988642439531
1498556244009573608,-0.06429375,-0.382190625,0.1017984375,0.0836590591222,-0.0189741087099,0.114567951242,0.989704667855
1498556244029188373,-0.0631775390625,-0.382971972656,0.102468164062,0.0773732704448,-0.0177770906202,0.114312623369,0.990267628577
1498556244049169634,-0.0615032226562,-0.384423046875,0.102356542969,0.074299240728,-0.0177192014225,0.114611161561,0.990469552472
1498556244069212498,-0.0596056640625,-0.386320605469,0.101910058594,0.0733393350312,-0.0178712666469,0.114024299036,0.990606086694
1498556244089296180,-0.0586010742188,-0.388329785156,0.101575195313,0.0726606041366,-0.0195398533725,0.110680275415,0.991003787768
1498556244109249723,-0.0581545898437,-0.390450585937,0.1017984375,0.0702134589639,-0.0217949488502,0.104265731161,0.991828466868
1498556244129147758,-0.0577081054687,-0.392124902344,0.101686816406,0.0680568439693,-0.0229513875918,0.0989280775959,0.992499236906
1498556244149087337,-0.05625703125,-0.393687597656,0.101910058594,0.0648424145621,-0.0232473352703,0.0931223199322,0.993268974753
1498556244169159355,-0.0533548828125,-0.395250292969,0.103472753906,0.0595921174766,-0.0212032116109,0.0901906541567,0.993913904347
1498556244189458884,-0.0503411132812,-0.397817578125,0.104923828125,0.0558758172746,-0.020843985347,0.0887389981332,0.994267977725
1498556244209607308,-0.0476622070313,-0.400608105469,0.106151660156,0.0543914797841,-0.0218055093124,0.0876011123846,0.99443055655
1498556244229238439,-0.045987890625,-0.402394042969,0.106821386719,0.0527111400768,-0.0225591994096,0.0870189144183,0.994555341229
1498556244249171813,-0.0447600585937,-0.403733496094,0.10626328125,0.0519928939895,-0.0236594856011,0.0855211666043,0.994697490586
1498556244269257261,-0.0431973632812,-0.405072949219,0.1053703125,0.0507987821109,-0.0234152564805,0.0847131854001,0.994834099596
1498556244289339338,-0.0411881835937,-0.407416992187,0.105035449219,0.0478786057509,-0.0228863260759,0.0848030160408,0.994983569543
1498556244309525623,-0.0394022460937,-0.410765625,0.1053703125,0.0449388769638,-0.0226179328779,0.0833777373209,0.995247245346
1498556244329426096,-0.0382860351562,-0.413779394531,0.106933007812,0.0409395343659,-0.021520263746,0.0805612738967,0.99567600851
1498556244349120051,-0.0367233398437,-0.416346679687,0.109165429687,0.0351507220148,-0.0202335122504,0.0754137160645,0.996327156688
1498556244368890837,-0.0347141601562,-0.417351269531,0.112067578125,0.0277285955377,-0.0170576099961,0.0711593274174,0.996933554984
1498556244389336619,-0.033486328125,-0.41880234375,0.114076757812,0.0221645219963,-0.0152173443024,0.0677705513968,0.997338617903
1498556244409642540,-0.0329282226562,-0.421146386719,0.112960546875,0.0238146465699,-0.0147910189235,0.064728397823,0.997509059048
1498556244429331469,-0.0320352539062,-0.423378808594,0.110951367187,0.0268339651205,-0.0142407154681,0.0636163882389,0.997511952553
1498556244449119213,-0.0313655273437,-0.426057714844,0.107937597656,0.0315966669288,-0.0139780185321,0.0623451599449,0.997456438482
1498556244468820154,-0.0303609375,-0.428401757812,0.106151660156,0.0326334167825,-0.012419960037,0.0609750578857,0.997528369029
1498556244489180502,-0.029914453125,-0.430857421875,0.105258691406,0.0311947344953,-0.0114378138956,0.0582460798704,0.997749196508
1498556244509466147,-0.0291331054688,-0.434429296875,0.104030859375,0.0307657028429,-0.0115841280384,0.0542235435344,0.997987518375
1498556244529101554,-0.02768203125,-0.437777929687,0.103472753906,0.0299809431827,-0.0118918580899,0.0517322023066,0.998140023244
1498556244549301931,-0.0255612304687,-0.441684667969,0.103137890625,0.0297798234104,-0.012781670981,0.0479235301542,0.998325160588
1498556244569314943,-0.0243333984375,-0.444586816406,0.103472753906,0.0291113329201,-0.0121831743599,0.0431084567194,0.998571860968
1498556244589063281,-0.0237752929687,-0.447935449219,0.103472753906,0.029222833725,-0.0119490159813,0.0377381343443,0.998788806616
1498556244609507472,-0.0225474609375,-0.451060839844,0.103472753906,0.0299275044008,-0.0118664011934,0.0331450621858,0.998931898507
1498556244629346736,-0.0213196289062,-0.453293261719,0.102468164062,0.0324092263915,-0.0128408932434,0.030140241369,0.998937595326
1498556244649210056,-0.020091796875,-0.4572,0.0982265625,0.0431766161067,-0.0171357226284,0.025484603617,0.99859535439
1498556244669176143,-0.0213196289062,-0.461218359375,0.0929803710937,0.0558862056888,-0.0213837354727,0.0159735347614,0.998080314433
1498556244689156433,-0.0255612304687,-0.466018066406,0.088850390625,0.0651314203587,-0.0256242846104,0.0018650174729,0.997545896603
1498556244709540630,-0.0286866210937,-0.470371289062,0.0871760742187,0.0676649234616,-0.0279681276341,-0.0100045025115,0.997265838129
1498556244729284446,-0.0296912109375,-0.474054785156,0.0859482421875,0.0688046764776,-0.0286483575987,-0.0168366775225,0.997076584015
1498556244749496577,-0.03125390625,-0.478742871094,0.0822647460937,0.0746478852432,-0.0301606929007,-0.0252010343622,0.996435112639
1498556244769246666,-0.0341560546875,-0.484212304687,0.0748977539063,0.0878790046543,-0.0309246388134,-0.0360982971342,0.994996412154
1498556244789237456,-0.0375046875,-0.49023984375,0.06875859375,0.0986467610849,-0.0314324726862,-0.0465199732123,0.993537472006
1498556244809556297,-0.0380627929687,-0.494816308594,0.0671958984375,0.10138892627,-0.0313103869642,-0.0514604927256,0.993021531985
1498556244829303207,-0.0367233398437,-0.497718457031,0.0686469726562,0.0989341634983,-0.0306487401212,-0.0519777968407,0.993262802413
1498556244849497614,-0.0332630859375,-0.500620605469,0.0713258789063,0.093896471783,-0.0294192388839,-0.0501136025942,0.993884594812
1498556244869749531,-0.0292447265625,-0.503187890625,0.0734466796875,0.0881550297254,-0.0273254009029,-0.0473752719781,0.994604241296
1498556244888860485,-0.0267890625,-0.507317871094,0.0740047851562,0.0853630706616,-0.0260119374887,-0.0471728517155,0.994892580803
1498556244909800526,-0.0269006835937,-0.511447851562,0.0714375,0.0878057823437,-0.0251652181882,-0.0514242604173,0.994491026516
1498556244928993494,-0.0282401367187,-0.514573242188,0.0670842773437,0.0925059364647,-0.0246099732537,-0.0571476582507,0.993766142557
1498556244949183322,-0.0306958007813,-0.516470800781,0.0625078125,0.0970060602121,-0.0236158632431,-0.0658122695665,0.992824687676
1498556244969309392,-0.0333747070312,-0.516694042969,0.0599405273438,0.0988691330729,-0.0224836974899,-0.0743526876273,0.992064038112
1498556244989236910,-0.0359419921875,-0.518479980469,0.057596484375,0.102398613807,-0.0224194610474,-0.0821848032872,0.991089072569
1498556245009635134,-0.0381744140625,-0.520935644531,0.0538013671875,0.110082438224,-0.02323467821,-0.0887145782109,0.989682641121
1498556245028942247,-0.039737109375,-0.523168066406,0.05000625,0.1168281607,-0.0240501152567,-0.0935268061089,0.988446007308
1498556245048993954,-0.0416346679687,-0.525177246094,0.0460995117187,0.123548373876,-0.0250039099434,-0.0988972499448,0.987081525384
1498556245068933800,-0.0431973632812,-0.526293457031,0.0427508789062,0.128967040968,-0.0257195781214,-0.102967219543,0.985953222696
1498556245089043455,-0.0447600585937,-0.528525878906,0.040630078125,0.132504312179,-0.0261996530476,-0.106514225443,0.985094363608
1498556245109505306,-0.0475505859375,-0.531093164063,0.0377279296875,0.138127827336,-0.0266370544976,-0.111968362464,0.983704354189
1498556245129050557,-0.0505643554687,-0.533325585938,0.0347141601562,0.143353326141,-0.027175870846,-0.117992624893,0.982236751704
1498556245149305012,-0.0543594726562,-0.535892871094,0.029914453125,0.151777729385,-0.0279702228692,-0.12626193109,0.979917910977
1498556245168889645,-0.0568151367187,-0.53846015625,0.0252263671875,0.160688517543,-0.0281227658163,-0.13291148726,0.977610784989
1498556245189220040,-0.0603870117187,-0.542478515625,0.0203150390625,0.169139154397,-0.0288500094927,-0.1402544389,0.975135024379
1498556245209487498,-0.064740234375,-0.545715527344,0.01696640625,0.175724070313,-0.0305722827073,-0.147433026589,0.972856561531
1498556245228862190,-0.0676423828125,-0.547836328125,0.016519921875,0.176869026037,-0.0317029941909,-0.151459331023,0.971994001439
1498556245248982711,-0.0699864257812,-0.549733886719,0.01696640625,0.176644998565,-0.0330243108948,-0.154490365562,0.971513595541
1498556245268874778,-0.0715491210938,-0.551519824219,0.0168547851562,0.176574950328,-0.0333968193807,-0.156539151117,0.97118558141
1498556245289067031,-0.0740047851562,-0.553752246094,0.0140642578125,0.179559500469,-0.0337525937064,-0.159923905051,0.970073962542
1498556245309359879,-0.07858125,-0.556542773437,0.00803671875,0.186953604223,-0.0350773517412,-0.16715193063,0.967407960144
1498556245329191544,-0.083492578125,-0.558440332031,0.00346025390625,0.192586433711,-0.0366222349256,-0.174532067415,0.964939290786
1498556245349232128,-0.0890736328125,-0.559110058594,-0.0002232421875,0.197184066516,-0.0385645499077,-0.182403049746,0.96247615391
1498556245369176309,-0.0932036132813,-0.558775195312,-0.00189755859375,0.199660742799,-0.0395804901482,-0.188535345524,0.96074106609
1498556245389167897,-0.096887109375,-0.558663574219,-0.00323701171875,0.202087409239,-0.0408426076904,-0.193842362346,0.959123401333
1498556245409772263,-0.100458984375,-0.558217089844,-0.0046880859375,0.20575139346,-0.0425838391628,-0.199041560726,0.957201879352
1498556245429151787,-0.103584375,-0.557658984375,-0.00569267578125,0.208813586461,-0.0444153874103,-0.203252933895,0.955569152042
1498556245449125158,-0.108718945312,-0.556096289062,-0.00792509765625,0.214263600263,-0.0466773873485,-0.210239232046,0.952739101969
1498556245469133145,-0.113630273437,-0.554645214844,-0.00803671875,0.215902815598,-0.0479411400444,-0.216477382918,0.950907547553
1498556245489259585,-0.117313769531,-0.553975488281,-0.007590234375,0.215698657422,-0.0488514879814,-0.220486809498,0.949985888393
1498556245510128377,-0.119546191406,-0.553752246094,-0.00814833984375,0.217235476977,-0.0505025437993,-0.222410652992,0.949100491017
1498556245529364685,-0.12144375,-0.553863867188,-0.0091529296875,0.219446234169,-0.0517151685111,-0.223472919374,0.948276724359
1498556245549378363,-0.125238867187,-0.553975488281,-0.0110504882812,0.22345319442,-0.0534288946887,-0.226329397686,0.94656696903
1498556245569462119,-0.130485058594,-0.554198730469,-0.0126131835937,0.226770208392,-0.0547967498456,-0.230794576608,0.944619739472
1498556245589291226,-0.136066113281,-0.55453359375,-0.0140642578125,0.230088830517,-0.0569175758547,-0.235646283439,0.942491564276
1498556245609763903,-0.140977441406,-0.554645214844,-0.015626953125,0.233552472417,-0.0599340944563,-0.239690697291,0.940430495349
1498556245629376140,-0.144326074219,-0.554421972656,-0.0173012695312,0.236708257885,-0.0618483159203,-0.242081281493,0.938903956546
1498556245649394993,-0.148456054688,-0.553640625,-0.01875234375,0.239755821259,-0.0641432925783,-0.245131944955,0.937183607279
1498556245669124444,-0.151693066406,-0.552859277344,-0.0199801757812,0.242322989832,-0.0653192791705,-0.247506089548,0.935817127437
1498556245689337889,-0.153702246094,-0.55274765625,-0.0213196289062,0.244927938972,-0.0663510712944,-0.247807985261,0.934986118875
1498556245709872081,-0.15448359375,-0.552970898437,-0.0228823242187,0.247985217857,-0.0678525736847,-0.24567851365,0.934634381937
1498556245729342070,-0.154037109375,-0.553194140625,-0.0243333984375,0.250826864077,-0.0687317776546,-0.24236100681,0.934678003045
1498556245749190987,-0.155264941406,-0.552301171875,-0.026342578125,0.254416066782,-0.0703905365153,-0.24035467376,0.934102386323
1498556245769284646,-0.159506542969,-0.55006875,-0.029021484375,0.258180384163,-0.0727591994022,-0.241988056283,0.93246488875
1498556245789292743,-0.166538671875,-0.547278222656,-0.0300260742187,0.259281042695,-0.0764273559424,-0.245565951413,0.930929408532
1498556245809637210,-0.171896484375,-0.545157421875,-0.0266774414062,0.255488175013,-0.0798105317482,-0.245985214492,0.931583246791
1498556245829451878,-0.173124316406,-0.544599316406,-0.0219893554687,0.250458230755,-0.0801363667976,-0.242876183544,0.933734435924
1498556245849243040,-0.172008105469,-0.544487695313,-0.0159618164062,0.243137678671,-0.0791942449174,-0.236705389772,0.937327530394
1498556245869329604,-0.172008105469,-0.54381796875,-0.0128364257813,0.23839360941,-0.0777723295718,-0.233321965932,0.939510942969
1498556245889373781,-0.174798632812,-0.542478515625,-0.0130596679687,0.237565234664,-0.07799844856,-0.233467387517,0.939665887572
1498556245909517985,-0.178705371094,-0.540357714844,-0.0158501953125,0.240859036364,-0.0799810629186,-0.234414799978,0.93842402768
1498556245929391425,-0.180826171875,-0.537790429688,-0.01875234375,0.245159480856,-0.0811059820417,-0.234223974513,0.93726078462
1498556245949331624,-0.181830761719,-0.533883691406,-0.02143125,0.25145908687,-0.0835255964302,-0.230925713845,0.936197157151
1498556245969390446,-0.180937792969,-0.530869921875,-0.0216544921875,0.254688165808,-0.0847767708722,-0.224513977288,0.936771216104
1498556245989330079,-0.180491308594,-0.529083984375,-0.0193104492187,0.253900335802,-0.0862175843387,-0.217535013528,0.938498623078
1498556246009656436,-0.181830761719,-0.527186425781,-0.0162966796875,0.252116513649,-0.0892574806937,-0.21263261879,0.939817926575
1498556246029181212,-0.183728320312,-0.524842382812,-0.0127248046875,0.248937807445,-0.0908992168102,-0.20973586139,0.941157887315
1498556246049440976,-0.187635058594,-0.5197078125,-0.0091529296875,0.245932737704,-0.0924377202741,-0.208424766758,0.942088888056
1498556246069436628,-0.191653417969,-0.514238378906,-0.00457646484375,0.238898311959,-0.0918115462002,-0.207302560605,0.944205425156
1498556246089426550,-0.195448535156,-0.509550292969,-0.002232421875,0.2331125983,-0.0924278383152,-0.20502805987,0.946086204256
1498556246109868512,-0.197569335938,-0.504973828125,-0.003571875,0.232616615203,-0.0958614522087,-0.20081918253,0.946769110311
1498556246129309691,-0.196787988281,-0.501625195312,-0.00446484375,0.232520124263,-0.0965653863042,-0.194445775216,0.948050820622
1498556246149555802,-0.194778808594,-0.497941699219,-0.0055810546875,0.233107534396,-0.0964476375062,-0.185938913621,0.949623847125
1498556246169497460,-0.193104492188,-0.494481445312,-0.00613916015625,0.234043846183,-0.0957261560564,-0.177180294247,0.951139907922
1498556246189561532,-0.193662597656,-0.491244433594,-0.00725537109375,0.235589382011,-0.095257953451,-0.170441101988,0.952036446856
1498556246209788319,-0.194220703125,-0.487114453125,-0.00881806640625,0.238746195811,-0.0951464195146,-0.163896872843,0.952410220394
1498556246229347760,-0.193439355469,-0.483319335937,-0.0078134765625,0.236671033547,-0.0929065344954,-0.157818584752,0.95417424616
1498556246249611429,-0.192992871094,-0.47952421875,-0.00234404296875,0.22573141818,-0.0918393051615,-0.150714084107,0.95806896084
1498556246269659427,-0.192546386719,-0.476510449219,0.00446484375,0.21281683427,-0.0912276738952,-0.14363882862,0.962161313647
1498556246289772209,-0.192769628906,-0.474612890625,0.0087064453125,0.20589770756,-0.0916374813701,-0.137555161644,0.964514014172
1498556246309637346,-0.19377421875,-0.472715332031,0.00971103515625,0.205574488886,-0.0922830255085,-0.134515109024,0.96495008066
1498556246329540172,-0.195336914063,-0.470482910156,0.0100458984375,0.206222111585,-0.0918077051293,-0.134591027553,0.964846641324
1498556246349511938,-0.196453125,-0.466464550781,0.010715625,0.205913756444,-0.091387574879,-0.134712077456,0.964935486057
1498556246369255003,-0.19556015625,-0.462446191406,0.0130596679687,0.201864931986,-0.0897700988777,-0.131282897812,0.966414341431
1498556246389557655,-0.194220703125,-0.4589859375,0.0145107421875,0.199515533513,-0.0885450911993,-0.126491029593,0.967653521744
1498556246409925388,-0.193885839844,-0.455302441406,0.0142875,0.19963806819,-0.0887488544723,-0.123726987751,0.96796689771
1498556246429353054,-0.193550976562,-0.452400292969,0.0140642578125,0.198817329548,-0.0885102674337,-0.122285435131,0.968340784221
1498556246449768136,-0.191765039063,-0.448716796875,0.0176361328125,0.190269213854,-0.0866917087821,-0.118589517268,0.97067950441
1498556246469570078,-0.189420996094,-0.445479785156,0.0239985351563,0.17604314932,-0.0829048879035,-0.113329399512,0.974316189101
1498556246489942874,-0.187076953125,-0.443135742188,0.028575,0.165765644497,-0.0803420767734,-0.107724873259,0.976965840491
1498556246509743292,-0.184174804687,-0.4411265625,0.0306958007813,0.161354726863,-0.0792839600286,-0.101458943452,0.97846041749
1498556246529414753,-0.181607519531,-0.439340625,0.0313655273437,0.160177908807,-0.0777835581878,-0.0958424641253,0.979340072537
1498556246549743311,-0.179263476562,-0.436326855469,0.032146875,0.158509075108,-0.0754972652403,-0.0903922184859,0.980308259114
1498556246569860425,-0.178370507812,-0.432643359375,0.0332630859375,0.154652935061,-0.0725289832317,-0.0878761191056,0.981376484311
1498556246589905128,-0.178035644531,-0.429294726563,0.0347141601562,0.149638881762,-0.0700613314838,-0.087818657084,0.982337772034
1498556246609904070,-0.177254296875,-0.424829882813,0.0368349609375,0.144192450408,-0.0678057335146,-0.0881101104227,0.983284052647
1498556246629051197,-0.17591484375,-0.421816113281,0.0380627929687,0.141175503702,-0.0663870281061,-0.0871552325747,0.98390355477
1498556246649609986,-0.173794042969,-0.419025585937,0.0402952148437,0.136369493152,-0.065035383504,-0.0837771519571,0.984964542022
1498556246669660350,-0.170891894531,-0.416569921875,0.0417462890625,0.133259978952,-0.0642964728273,-0.0792490213246,0.985813032076
1498556246689921934,-0.167878125,-0.414449121094,0.0429741210937,0.129793666804,-0.0630425076498,-0.0751974976751,0.986673493426
1498556246709891439,-0.164752734375,-0.411435351562,0.0452065429687,0.123917431205,-0.060577532724,-0.072009912527,0.987820532926
1498556246729332223,-0.16162734375,-0.409202929687,0.046434375,0.120444993662,-0.0585603580557,-0.0690019909952,0.988586067677
1498556246749499703,-0.158836816406,-0.40719375,0.0481086914062,0.115954961058,-0.0566135331141,-0.066981171042,0.989374993418
1498556246769408804,-0.156046289062,-0.405742675781,0.0496713867188,0.11237278381,-0.0551280996473,-0.0648444155075,0.990014369525
1498556246789376424,-0.153032519531,-0.404961328125,0.0515689453125,0.10827720573,-0.053329462663,-0.0617995938652,0.990763758587
1498556246809811534,-0.149683886719,-0.403287011719,0.0534665039062,0.104855796307,-0.0524026659153,-0.0589948348761,0.991352022262
1498556246828998901,-0.146558496094,-0.4018359375,0.0548059570312,0.102207209142,-0.051008420668,-0.0565863490378,0.991841626734
1498556246849291068,-0.143209863281,-0.399826757812,0.0559221679687,0.0994758897983,-0.0502745400682,-0.0548705140987,0.992253115214
1498556246869252267,-0.139303125,-0.3982640625,0.0568151367187,0.0973760100967,-0.0489545338785,-0.0526100481281,0.992649761551
1498556246889367397,-0.135508007812,-0.396701367187,0.0577081054687,0.0954210318007,-0.0478994293833,-0.0508861381534,0.992980902283
1498556246909747550,-0.132829101562,-0.394134082031,0.0577081054687,0.0953934623134,-0.0479543115166,-0.0514573327335,0.992951466217
1498556246928947060,-0.1303734375,-0.392236523437,0.0582662109375,0.0939364313721,-0.0469056116825,-0.0514349435462,0.99314160976
1498556246949205605,-0.126355078125,-0.390897070312,0.061168359375,0.0869796663453,-0.0437865820419,-0.0489534216862,0.994042672817
1498556246969003391,-0.120327539062,-0.390338964844,0.0664145507812,0.0754830960016,-0.0382702476176,-0.0427655677187,0.995494247388
1498556246989445252,-0.114634863281,-0.389892480469,0.07054453125,0.0660834916566,-0.0344275103011,-0.0378083870656,0.996503007789
1498556247009842305,-0.110504882812,-0.388776269531,0.0713258789063,0.0640144010258,-0.0342863302864,-0.0369253851151,0.996676035606
1498556247029126515,-0.107267871094,-0.387771679687,0.0707677734375,0.0642096856662,-0.034638627784,-0.0363199113976,0.996673540217
1498556247049007289,-0.104030859375,-0.387101953125,0.070098046875,0.0647216097291,-0.0360093925249,-0.0364007636524,0.996588892819
1498556247069411440,-0.0996776367187,-0.386767089844,0.0722188476562,0.0602598316406,-0.034915377236,-0.0339379191302,0.996994426649
1498556247089395817,-0.0946546875,-0.386878710937,0.0762372070312,0.0516926070399,-0.0319106502209,-0.0301701703911,0.997697020943
1498556247109803714,-0.0896317382812,-0.386767089844,0.0803671875,0.0434617981842,-0.029008968257,-0.0269141753491,0.998271094956
1498556247129094028,-0.0850552734375,-0.386878710937,0.0831577148437,0.0374992849963,-0.0264093368561,-0.0235429095558,0.998670156739
1498556247149326061,-0.0796974609375,-0.3875484375,0.0859482421875,0.0316780304463,-0.0250105796398,-0.0202894039584,0.998979135608
1498556247169252432,-0.0742280273438,-0.387771679687,0.089743359375,0.0239220295593,-0.02381449144,-0.0172519461825,0.999281230111
1498556247189447512,-0.0685353515625,-0.388329785156,0.0930919921875,0.0165602057234,-0.0224684822666,-0.0134247743939,0.999520236075
1498556247209838522,-0.062954296875,-0.389111132812,0.0954360351563,0.0118499735828,-0.0212175974754,-0.0104797306789,0.999649722117
1498556247229271166,-0.05804296875,-0.389669238281,0.0971103515625,0.00771433966274,-0.0190410131203,-0.00751898680506,0.99976066817
1498556247248952529,-0.0530200195312,-0.3911203125,0.0972219726562,0.00715295574852,-0.0186491682754,-0.0069576750303,0.99977629223
1498556247269282299,-0.0490016601562,-0.39290625,0.0963290039062,0.00885035786934,-0.0194381437565,-0.00806865806615,0.99973932927
1498556247289282767,-0.0448716796875,-0.395361914062,0.0956592773437,0.0097921591591,-0.0196450804356,-0.00881485471164,0.999720202242
1498556247309607108,-0.0399603515625,-0.39737109375,0.09733359375,0.00579824668853,-0.0184525583263,-0.00775069093115,0.999782881538
1498556247329116517,-0.0346025390625,-0.397929199219,0.101351953125,-0.0040946572954,-0.0155128980853,-0.00447215034511,0.999861282202
1498556247349212705,-0.0284633789062,-0.399826757812,0.105258691406,-0.0124698667107,-0.0134137152939,-0.000742427383558,0.999831997622
1498556247368975640,-0.0237752929687,-0.402617285156,0.10715625,-0.0145626715185,-0.0141957191702,0.000368359662975,0.999793115833
1498556247389214054,-0.0198685546875,-0.405742675781,0.108160839844,-0.015708454675,-0.0159244650234,0.000516582189702,0.99974966317
1498556247409700561,-0.0155153320312,-0.408421582031,0.110504882812,-0.0203060081658,-0.015930567594,0.000634977166131,0.999666684377
1498556247429246610,-0.0113853515625,-0.409761035156,0.113295410156,-0.0268193445971,-0.0144114035074,0.000955615446334,0.999535952832
1498556247449218123,-0.00658564453125,-0.4125515625,0.114746484375,-0.0300874840953,-0.012863995521,0.000379895154057,0.999464414874
1498556247469129423,-0.0033486328125,-0.415118847656,0.114523242187,-0.0289717262425,-0.0125941697104,-0.00228287728747,0.999498281359
1498556247489052782,-0.000446484375,-0.418244238281,0.113630273437,-0.0265171629117,-0.0132953408098,-0.00495501543993,0.999547658597
1498556247509740141,0.003125390625,-0.420923144531,0.114634863281,-0.0286322266172,-0.0136571806321,-0.00537727440742,0.999482246934
1498556247529217822,0.006697265625,-0.423155566406,0.116197558594,-0.0307251180407,-0.0131003583949,-0.00443027175287,0.999432199013
1498556247549147152,0.0109388671875,-0.428401757812,0.115862695312,-0.0266990560923,-0.0127347675274,-0.00436728578753,0.999552856489
1498556247568884270,0.0132829101562,-0.434206054688,0.11340703125,-0.0179334637665,-0.013087514276,-0.0080955406653,0.999720746043
1498556247589245307,0.0148456054688,-0.440121972656,0.111062988281,-0.0116956016828,-0.013642106654,-0.0141536670364,0.999738355539
1498556247609525543,0.0173012695312,-0.445479785156,0.110728125,-0.0110048506838,-0.0141754647498,-0.0189415183186,0.999659526211
1498556247629183282,0.02053828125,-0.449944628906,0.111174609375,-0.013129908672,-0.0137294844055,-0.0206916308741,0.999605403731
1498556247649269877,0.0224358398437,-0.457981347656,0.106374902344,-0.00231100767191,-0.0139374963164,-0.0282071802483,0.999502256337
1498556247669174485,0.021877734375,-0.467134277344,0.0971103515625,0.0194029492435,-0.0136401485981,-0.0401803663419,0.998910911977
1498556247688833530,0.0198685546875,-0.477515039062,0.0865063476562,0.0428830923826,-0.0126973015973,-0.0539250681998,0.997542934384
1498556247709721450,0.0173012695312,-0.485886621094,0.0789161132812,0.0595545113606,-0.0138555701761,-0.067492584029,0.995844382649
1498556247729264078,0.0190872070313,-0.489681738281,0.0786928710938,0.0593483124436,-0.0136428943905,-0.0705734433013,0.995646040691
1498556247749423424,0.0196453125,-0.49559765625,0.0774650390625,0.0611743495024,-0.0141420711235,-0.0764634819379,0.995093481396
1498556247769176168,0.0208731445312,-0.502183300781,0.0730001953125,0.0693852151028,-0.0118350825799,-0.0811531024915,0.994213154561
1498556247789345664,0.0213196289062,-0.511447851562,0.0654099609375,0.0817985441789,-0.00779343770802,-0.0875542498934,0.992765084914
1498556247809836443,0.019198828125,-0.520824023437,0.05982890625,0.0918515225084,-0.00702155102086,-0.0966359922496,0.991047668196
1498556247829347079,0.0176361328125,-0.5268515625,0.05804296875,0.0952777706625,-0.00744298077715,-0.103502239378,0.990027289977
1498556247849346646,0.0135061523437,-0.532320996094,0.0573732421875,0.0966366578961,-0.00928357206968,-0.114816711539,0.988631526096
1498556247869278081,0.00658564453125,-0.536116113281,0.0511224609375,0.107803710075,-0.00806778472777,-0.130669784155,0.98551442326
1498556247889368934,-0.00301376953125,-0.541362304688,0.0411881835937,0.124738037201,-0.00515975382432,-0.149699142953,0.980818008407
1498556247909911371,-0.01160859375,-0.547947949219,0.0337095703125,0.137750964751,-0.0035553656211,-0.165758920804,0.976491685197
1498556247929428103,-0.0150688476563,-0.552301171875,0.0305841796875,0.142155770964,-0.00339020348939,-0.172920924702,0.974617154119
1498556247949501513,-0.0166315429687,-0.556989257812,0.0271239257812,0.146111777958,-0.00559599235595,-0.177652261084,0.97316992727
1498556247969368565,-0.017859375,-0.560003027344,0.0235520507813,0.151245358259,-0.00741608366342,-0.180733120721,0.971805218335
1498556247989461247,-0.0195336914063,-0.562458691406,0.02053828125,0.155673955484,-0.00775857823566,-0.183819210702,0.970523529764
1498556248009634963,-0.0219893554687,-0.564579492188,0.0194220703125,0.157056411466,-0.00789820053471,-0.186684495137,0.969752443318
1498556248029326732,-0.0239985351563,-0.566365429687,0.0195336914063,0.156585047976,-0.00759251390325,-0.189005452755,0.969381460165
1498556248049227553,-0.027235546875,-0.569155957031,0.0198685546875,0.156859872912,-0.00854858514865,-0.192104242141,0.968719702553
1498556248069096572,-0.0315887695312,-0.571276757812,0.0197569335937,0.159085315556,-0.0105033407635,-0.196420769155,0.967471148744
1498556248089371504,-0.0377279296875,-0.572281347656,0.0181942382812,0.164268282339,-0.0132549139784,-0.202751916495,0.965262606253
1498556248109568423,-0.0460995117187,-0.571946484375,0.0150688476563,0.17246636638,-0.017437300621,-0.211731846336,0.96183206344
1498556248129504371,-0.0533548828125,-0.571723242187,0.01339453125,0.177276701616,-0.0208567735445,-0.21883674328,0.959295807273
1498556248149391479,-0.06340078125,-0.572504589844,0.0131712890625,0.180896293404,-0.0252832702471,-0.227990144049,0.956377426278
1498556248169250864,-0.0730001953125,-0.573062695312,0.0131712890625,0.184851972454,-0.0287747791422,-0.235572131642,0.953681042676
1498556248189208973,-0.0822647460937,-0.571834863281,0.0112737304687,0.190690450157,-0.0315453880111,-0.242718945782,0.950646913461
1498556248209877585,-0.0896317382812,-0.569267578125,0.00792509765625,0.196749597126,-0.0340015670116,-0.247637973214,0.948055337886
1498556248229339808,-0.0935384765625,-0.567258398437,0.005804296875,0.198830729418,-0.0350583442737,-0.248975809696,0.947231914434
1498556248249280817,-0.097780078125,-0.565472460937,0.003125390625,0.202073266475,-0.036808661033,-0.24924181145,0.946409021974
1498556248269202008,-0.100682226562,-0.563240039062,-0.00212080078125,0.210977089385,-0.0374596642648,-0.247723092035,0.94483792842
1498556248289395676,-0.103472753906,-0.559779785156,-0.0089296875,0.224240893601,-0.0382315106916,-0.245303487877,0.942380269351
1498556248309879041,-0.107491113281,-0.555314941406,-0.0130596679687,0.234696043202,-0.041637956233,-0.242792771576,0.940338087061
1498556248329385953,-0.110170019531,-0.5518546875,-0.0136177734375,0.237852409258,-0.04418611366,-0.239173884419,0.940356140928
1498556248349273641,-0.11340703125,-0.547836328125,-0.0123899414062,0.238587991359,-0.0472017509718,-0.233659293595,0.941409103207
1498556248369356410,-0.116755664062,-0.543706347656,-0.0126131835937,0.242488657164,-0.0490507831125,-0.227668293181,0.941785761255
1498556248389370298,-0.119434570313,-0.538571777344,-0.0121666992187,0.245050768184,-0.0501499628656,-0.221826227085,0.942458607693
1498556248409735685,-0.121890234375,-0.533437207031,-0.0082599609375,0.240667549116,-0.0508652352954,-0.216416246889,0.944804671201
1498556248429202600,-0.124234277344,-0.529642089844,-0.003125390625,0.232264629867,-0.0517282476551,-0.212715127315,0.94769700048
1498556248449349499,-0.126578320312,-0.52595859375,0.003125390625,0.221200973446,-0.0543190647054,-0.205960836187,0.951682563943
1498556248469248741,-0.127917773437,-0.521270507812,0.00680888671875,0.215415166455,-0.0575434179365,-0.197168647322,0.954677739149
1498556248489369066,-0.128922363281,-0.514573242188,0.00803671875,0.213535604844,-0.0588182278826,-0.188996351017,0.956673058487
1498556248509645014,-0.129703710937,-0.508322460937,0.008483203125,0.214665736838,-0.0586143229066,-0.180340989306,0.958102348475
1498556248529124759,-0.129703710937,-0.503745996094,0.01160859375,0.209871886528,-0.058493728609,-0.172728834924,0.96057119702
1498556248549289786,-0.130150195312,-0.499281152344,0.0168547851562,0.201110762702,-0.0595407712424,-0.163411330819,0.964005235798
1498556248569302169,-0.131043164062,-0.493700097656,0.0219893554687,0.192740146578,-0.0605646404786,-0.155684557562,0.966925787616
1498556248589361235,-0.133387207031,-0.486109863281,0.0264541992187,0.183501253569,-0.0595583696609,-0.15172544445,0.969411924854
1498556248609732038,-0.13662421875,-0.477626660156,0.029914453125,0.174474334805,-0.0590069822465,-0.150565628757,0.97129134351
1498556248629494515,-0.136289355469,-0.471710742187,0.0327049804687,0.166983217644,-0.0579788672734,-0.145224198742,0.973480861689
1498556248649393067,-0.134168554687,-0.465794824219,0.0354955078125,0.159000513491,-0.0574733848068,-0.134811879637,0.976340823615
1498556248669449351,-0.133275585937,-0.460325390625,0.0358303710937,0.158806700941,-0.058043985798,-0.126830747122,0.977407432463
1498556248689529213,-0.132829101562,-0.454186230469,0.0349374023438,0.160465282485,-0.0571357012682,-0.121349482938,0.977885835744
1498556248709835268,-0.13305234375,-0.448940039062,0.0339328125,0.161769879202,-0.0569986749275,-0.117280277208,0.978175338995
1498556248729426872,-0.13305234375,-0.444251953125,0.0363884765625,0.155746168864,-0.05590568035,-0.114226743637,0.979576406834
1498556248749559511,-0.134391796875,-0.438559277344,0.0411881835937,0.144213411193,-0.055737342224,-0.112379437161,0.981563397248
1498556248769433564,-0.134726660156,-0.432754980469,0.0448716796875,0.136254016259,-0.0559963975437,-0.110151611684,0.98293736777
1498556248789660412,-0.132159375,-0.426950683594,0.05000625,0.125635508864,-0.052468532971,-0.104941552537,0.985114228154
1498556248809809525,-0.128475878906,-0.422039355469,0.0543594726562,0.116202774519,-0.0487868814358,-0.0979255912396,0.987181510146
1498556248829406154,-0.125350488281,-0.418020996094,0.05715,0.109728979,-0.0467432054524,-0.0928543557971,0.988510340118
1498556248849687024,-0.122113476563,-0.413891015625,0.0610567382813,0.0986554067747,-0.0447069512818,-0.0875416973322,0.990254942148
1498556248869612595,-0.120104296875,-0.409984277344,0.0622845703125,0.0939820471489,-0.0444323470026,-0.0852466641478,0.990921867558
1498556248889196475,-0.117760253906,-0.406189160156,0.0627310546875,0.0912943711828,-0.0430797629396,-0.0837568900541,0.991359801073
1498556248909722300,-0.114634863281,-0.402617285156,0.0646286132812,0.0854386424493,-0.041477309467,-0.0802850826164,0.992236955916
1498556248928824666,-0.110281640625,-0.40005,0.0670842773437,0.0783726607556,-0.0392239172056,-0.074214640782,0.993383811756
1498556248948809337,-0.104365722656,-0.397147851562,0.07233046875,0.0645006679429,-0.0362631138819,-0.0662804395033,0.995053543155
1498556248969313758,-0.0987846679688,-0.394022460937,0.0769069335937,0.0523616657541,-0.0346918179751,-0.0598734989193,0.996227834309
1498556248989168079,-0.0935384765625,-0.391343554687,0.079920703125,0.0438390508611,-0.0325815667728,-0.0546976254397,0.997007898112
1498556249009176678,-0.089743359375,-0.388553027344,0.0823763671875,0.0371330254762,-0.0307438970698,-0.0517240476417,0.997497154937
1498556249029375979,-0.0844971679687,-0.3857625,0.0846087890625,0.0316419475231,-0.0280110642469,-0.0475783595117,0.997973179571
1498556249049254589,-0.0801439453125,-0.383753320312,0.085278515625,0.0298247130235,-0.0272714534082,-0.0451625575111,0.99816185948
1498556249069328523,-0.0748977539063,-0.382302246094,0.08483203125,0.0297510509782,-0.0269518301644,-0.0411542283676,0.99834603385
1498556249089474381,-0.0679772460937,-0.381186035156,0.0865063476562,0.0229375790101,-0.0241995102457,-0.034315800789,0.998854682619
1498556249109640094,-0.0608334960938,-0.379623339844,0.091529296875,0.00885503492879,-0.0201845033663,-0.0266476353852,0.999401859969
1498556249128960580,-0.0546943359375,-0.378060644531,0.0963290039062,-0.00378291319457,-0.0166090381836,-0.0199950990308,0.999654953188
1498556249149251314,-0.049559765625,-0.376051464844,0.101017089844,-0.0157712219253,-0.015088277517,-0.0161487896357,0.999631346564
1498556249168982315,-0.0457646484375,-0.373930664062,0.103919238281,-0.0236294811599,-0.015157037274,-0.0160796976706,0.999476540577
1498556249189565412,-0.0412998046875,-0.372144726562,0.106821386719,-0.0316691624394,-0.015045270862,-0.0156264246036,0.999262987821
1498556249209282509,-0.0368349609375,-0.371363378906,0.109165429687,-0.0379593497868,-0.0152250418209,-0.0134297062749,0.999073034795
1498556249228873112,-0.029914453125,-0.370470410156,0.112737304687,-0.0472451904546,-0.0144308637327,-0.00739906409755,0.998751668835
1498556249248870023,-0.0232171875,-0.370023925781,0.116309179687,-0.0567373047274,-0.0139093119787,-0.00194253168335,0.998290356491
1498556249269092673,-0.0171896484375,-0.369242578125,0.119992675781,-0.0670190572866,-0.0135716731685,0.00177809010627,0.997657804081
1498556249289644474,-0.0125015625,-0.368684472656,0.123676171875,-0.0771317227077,-0.0135310137755,0.00337530778194,0.996923375348
1498556249309343146,-0.0095994140625,-0.368572851562,0.126355078125,-0.0838162041682,-0.0143175653517,0.00322004404187,0.99637316431
1498556249328810192,-0.00658564453125,-0.369019335937,0.129592089844,-0.0912702588817,-0.0159720461577,0.00200056048866,0.995696053695
1498556249348831832,-0.003571875,-0.370358789062,0.131824511719,-0.0966144625771,-0.0180260059089,0.0011383078914,0.995157983934
1498556249368833295,0.00011162109375,-0.372256347656,0.133498828125,-0.10193149689,-0.0200171588201,0.00160865640939,0.994588706712
1498556249389634370,0.00479970703125,-0.374488769531,0.135173144531,-0.106261839016,-0.0208608574932,0.00393717126043,0.99411153543
1498556249409725472,0.0109388671875,-0.3768328125,0.13662421875,-0.108099340148,-0.0199697770805,0.00804489830713,0.993906947493
1498556249428916826,0.0162966796875,-0.378283886719,0.137740429687,-0.108798248596,-0.0191011653618,0.0123686089935,0.99380335283
1498556249448880606,0.0225474609375,-0.380627929687,0.1375171875,-0.106452887886,-0.0185484678648,0.0165178144929,0.99400749434
1498556249468885664,0.0274587890625,-0.382748730469,0.139191503906,-0.107770173785,-0.0183341722222,0.0178684610592,0.993846147988
1498556249489404734,0.032146875,-0.386097363281,0.141535546875,-0.111014717946,-0.0178634363082,0.0182538238253,0.993490527362
1498556249509678992,0.0360536132813,-0.391790039062,0.140307714844,-0.105147555145,-0.017683179358,0.0158612677872,0.994172880841
1498556249528987325,0.037951171875,-0.395920019531,0.13841015625,-0.0989061699777,-0.0179852142956,0.0122722054966,0.994858529932
1498556249549196633,0.038844140625,-0.400831347656,0.136735839844,-0.0925278197737,-0.0182386266779,0.0056191697662,0.99552718697
1498556249569307063,0.0400719726562,-0.404403222656,0.136959082031,-0.0899460355353,-0.0183308510225,0.000460976580789,0.995777825668
1498556249589208916,0.0428625,-0.408198339844,0.136847460937,-0.0877073669713,-0.0175046189543,-0.00231106468304,0.995989791652
1498556249609732579,0.0458762695312,-0.413109667969,0.135173144531,-0.0820347160088,-0.0178235241852,-0.00550564980612,0.996454873627
1498556249629386999,0.0481086914062,-0.416346679687,0.134726660156,-0.0788225031581,-0.0190432041921,-0.0072730788342,0.996680225395
1498556249649291805,0.0496713867188,-0.422932324219,0.132047753906,-0.0699691733792,-0.0206048219328,-0.0131626565701,0.997249467567
1498556249669297947,0.0505643554687,-0.429741210938,0.129815332031,-0.0626602773957,-0.0210479096578,-0.0197513311194,0.997617441735
1498556249689253971,0.0516805664062,-0.437108203125,0.126355078125,-0.0533860751474,-0.0195552951517,-0.0257980631936,0.99804908564
1498556249709750679,0.0510108398437,-0.445814648437,0.119099707031,-0.0351457976241,-0.0177484863907,-0.0357100155069,0.998586280164
1498556249729351866,0.0505643554687,-0.4518421875,0.111844335937,-0.0183149913275,-0.0155299598115,-0.0428300721806,0.998793755666
1498556249749177163,0.0487784179688,-0.460325390625,0.102914648437,0.00196268542817,-0.0135462091719,-0.0534310758946,0.998477725446
1498556249769255298,0.0460995117187,-0.467245898437,0.0975568359375,0.0148094072778,-0.0145987476382,-0.0643464151246,0.997710928518
1498556249789197117,0.0436438476562,-0.473608300781,0.0952127929687,0.0214048708601,-0.0171654525089,-0.073951063938,0.996884355824
1498556249809899304,0.0412998046875,-0.480528808594,0.09197578125,0.0305189597256,-0.0192700752189,-0.082345067602,0.995950072614
1498556249829339314,0.0395138671875,-0.484993652344,0.0895201171875,0.0375968324122,-0.0206805748566,-0.0884778754909,0.995153484426
1498556249849312781,0.0359419921875,-0.489904980469,0.0853901367187,0.0462372516037,-0.0211504514684,-0.0980537508958,0.993881399817
1498556249869371052,0.0305841796875,-0.492695507812,0.081706640625,0.0536671814669,-0.0219493565238,-0.10934487289,0.992311321186
1498556249889396236,0.024556640625,-0.496490625,0.0784696289062,0.0601484265884,-0.0210847277132,-0.120940397953,0.990611438042
1498556249909812417,0.01875234375,-0.502629785156,0.0734466796875,0.0705998632854,-0.0183543808465,-0.132072949752,0.98855223026
1498556249929275242,0.0137293945312,-0.508322460937,0.0679772460937,0.0823045045965,-0.0156663805957,-0.141170065183,0.986433751318
1498556249949283324,0.00613916015625,-0.51524296875,0.0592708007812,0.0987533357718,-0.0127974272653,-0.154563952868,0.982951671754
1498556249969282612,-0.0002232421875,-0.51881484375,0.0529083984375,0.109784400619,-0.0129031351967,-0.164111234311,0.980228747414
1498556249989307726,-0.00479970703125,-0.520824023437,0.0506759765625,0.111802562873,-0.0148423612273,-0.169422168286,0.979068955764
1498556250009899096,-0.009376171875,-0.522498339844,0.0492249023437,0.11403548974,-0.0165623251272,-0.173988252882,0.977982456042
1498556250029287920,-0.0137293945312,-0.52417265625,0.0472157226562,0.118143913325,-0.0174877562235,-0.178645387691,0.976638121099
1498556250049317547,-0.0208731445312,-0.526405078125,0.0436438476562,0.126058299392,-0.018843173628,-0.186679949498,0.97411746541
1498556250069395618,-0.0283517578125,-0.528079394531,0.0414114257812,0.131714423359,-0.0208525075462,-0.194608502429,0.971773643597
1498556250089315707,-0.0358303710937,-0.529195605469,0.0404068359375,0.134458514384,-0.0228023955006,-0.201565357439,0.969934206712
1498556250109532957,-0.0417462890625,-0.530200195312,0.039290625,0.13777944611,-0.0246749922166,-0.206816443872,0.968315510323
1498556250129266255,-0.0485551757813,-0.531093164063,0.0350490234375,0.146628075654,-0.0260833276163,-0.212338648413,0.965780599226
1498556250149317908,-0.0542478515625,-0.531986132812,0.0292447265625,0.157283971421,-0.0262445255054,-0.215606651666,0.963372590939
1498556250169328396,-0.0583778320312,-0.531762890625,0.0248915039062,0.164948331387,-0.0266367700981,-0.215799363849,0.96203594788
1498556250189266650,-0.0618380859375,-0.530981542969,0.0243333984375,0.165651289293,-0.0268856155265,-0.214056617195,0.962297552043
1498556250209378545,-0.0658564453125,-0.529865332031,0.0253379882812,0.163810591527,-0.028219469292,-0.213821000751,0.962626787127
1498556250229199775,-0.072776953125,-0.527521289062,0.025003125,0.165885839097,-0.0303054533763,-0.216144862462,0.961688549539
1498556250249365884,-0.0823763671875,-0.524619140625,0.02411015625,0.168873202256,-0.0326635456597,-0.220884451504,0.960013017322
1498556250269145745,-0.0914176757812,-0.520824023437,0.0257844726562,0.168403005705,-0.0364699437774,-0.224775542029,0.959054913222
1498556250289320233,-0.09733359375,-0.517252148438,0.0306958007813,0.162344470263,-0.0399701731911,-0.224549667532,0.960012554627
1498556250309530884,-0.1000125,-0.515019726562,0.0332630859375,0.158781361068,-0.0427951331145,-0.22162059649,0.961166669819
1498556250329306008,-0.100682226562,-0.512117578125,0.032593359375,0.161300252908,-0.0447135278887,-0.214449205199,0.962286063094
1498556250349177577,-0.101686816406,-0.509438671875,0.029914453125,0.166484566679,-0.0461192453017,-0.205792968108,0.963226431608
1498556250369318933,-0.105816796875,-0.505308691406,0.0271239257812,0.171476421085,-0.048278526562,-0.200773851924,0.963304147852
1498556250389192699,-0.113072167969,-0.500843847656,0.02589609375,0.173573109951,-0.0501698574338,-0.200966616252,0.962791659737
1498556250409677603,-0.118653222656,-0.497048730469,0.0265658203125,0.171766480679,-0.052192642366,-0.20213553516,0.962763433884
1498556250429317028,-0.1232296875,-0.492249023437,0.0265658203125,0.171113359825,-0.0525639451254,-0.201694068301,0.962952102949
1498556250449300997,-0.12590859375,-0.488230664062,0.0277936523437,0.168910429829,-0.0523424283863,-0.19776534806,0.964167207487
1498556250469298746,-0.128922363281,-0.4839890625,0.0282401367187,0.169157817403,-0.0534217994871,-0.192598088148,0.96511021163
1498556250489347506,-0.131712890625,-0.480305566406,0.0306958007813,0.165857434127,-0.0533352878668,-0.185036177437,0.967165069496
1498556250509573354,-0.132717480469,-0.47773828125,0.0335979492187,0.160543257299,-0.053923377149,-0.176441943437,0.969632081013
1498556250529187999,-0.132494238281,-0.473161816406,0.03482578125,0.157905049062,-0.0550047689831,-0.166174634001,0.971816063813
1498556250549276238,-0.133722070312,-0.467580761719,0.0344909179687,0.156895695172,-0.0562725879368,-0.159658738134,0.972998573494
1498556250569200744,-0.136847460937,-0.460883496094,0.03303984375,0.158464406993,-0.0587599874991,-0.156485823082,0.973112780083
1498556250589158472,-0.139414746094,-0.454074609375,0.0344909179687,0.155201608693,-0.0583702147729,-0.152825584163,0.97424315215
1498556250609900781,-0.141647167969,-0.447488964844,0.037058203125,0.150366713623,-0.0571310648442,-0.148980449839,0.975669369423
1498556250629217986,-0.142651757813,-0.442131152344,0.0380627929687,0.148997458983,-0.0568919181774,-0.145232741565,0.976458149457
1498556250649241506,-0.143544726563,-0.437219824219,0.0395138671875,0.145790385702,-0.0567502073032,-0.138846712895,0.977878401298
1498556250669215098,-0.143879589844,-0.431973632813,0.0414114257812,0.140929893253,-0.0575481813336,-0.132180490141,0.979466839683
1498556250689447455,-0.142763378906,-0.4268390625,0.0462111328125,0.129640197592,-0.0556323383015,-0.124466387033,0.982143869605
1498556250709729520,-0.143544726563,-0.422820703125,0.0484435546875,0.123271779048,-0.0555239284616,-0.121279736345,0.983367879997
1498556250729161479,-0.144214453125,-0.417239648437,0.0478854492187,0.124094331086,-0.0561303723176,-0.117714162514,0.983663232127
1498556250749297846,-0.144772558594,-0.411212109375,0.0472157226562,0.124606052815,-0.0561463339675,-0.114434157418,0.983984626099
1498556250769317094,-0.146335253906,-0.404738085937,0.0481086914062,0.122130818212,-0.0565926618418,-0.112748416563,0.984463878683
1498556250789384791,-0.147004980469,-0.399938378906,0.0490016601562,0.118916519465,-0.0556727688405,-0.110134537626,0.985205454629
1498556250809920386,-0.147116601563,-0.397147851562,0.0476622070313,0.119461688419,-0.0570449015355,-0.106667804538,0.985442420278
1498556250829324779,-0.147563085938,-0.394580566406,0.046880859375,0.11989305352,-0.0585238896197,-0.105679978602,0.985409738223
1498556250849335905,-0.147004980469,-0.390004101562,0.0481086914062,0.115312207739,-0.057729361014,-0.103501228554,0.986234207129
1498556250869360458,-0.14555390625,-0.383864941406,0.0525735351562,0.103532796982,-0.05494308052,-0.100733083764,0.987985356009
1498556250889378472,-0.142093652344,-0.378395507812,0.0568151367187,0.092025693018,-0.0507594640004,-0.0944203835526,0.989969464079
1498556250909191700,-0.138856640625,-0.375604980469,0.0583778320312,0.0872985648052,-0.0489427752707,-0.0882956520743,0.991053703467
1498556250929272108,-0.135619628906,-0.371809863281,0.0583778320312,0.0860900457855,-0.0476189456466,-0.0834994619199,0.991639440468
1498556250949291306,-0.132717480469,-0.368349609375,0.05804296875,0.0854053607859,-0.0464188308223,-0.0794313481985,0.992089651905
1498556250969303239,-0.130708300781,-0.364666113281,0.0599405273438,0.0800672294008,-0.0451756719228,-0.0768827708889,0.992792746238
1498556250989421119,-0.128029394531,-0.360647753906,0.062954296875,0.0721554730752,-0.0429310272283,-0.0735469470907,0.993751156568
1498556251009729622,-0.124680761719,-0.357075878906,0.0648518554687,0.0664990981231,-0.0414252877054,-0.069280054549,0.994516007679
1498556251029333471,-0.121778613281,-0.354173730469,0.0664145507812,0.0621039040472,-0.0403198521665,-0.0660745728626,0.995063598693
1498556251049144142,-0.118206738281,-0.350713476562,0.0673075195312,0.0590624262593,-0.0389467116973,-0.0628311918349,0.995513447817
1498556251069151763,-0.114969726562,-0.347253222656,0.0689818359375,0.0542121984758,-0.0381265645412,-0.0607555803683,0.995949879295
1498556251089376409,-0.111062988281,-0.343904589844,0.0717723632813,0.0458417274685,-0.0360882505875,-0.0573276451581,0.996649243863
1498556251109638003,-0.107491113281,-0.341895410156,0.0737815429688,0.0394662521629,-0.0355777393758,-0.0541205149156,0.997119656444
1498556251129170680,-0.102468164062,-0.339662988281,0.0757907226563,0.0331697534673,-0.0344855602261,-0.0493993927989,0.997632303798
1498556251149217113,-0.0976684570313,-0.338323535156,0.0771301757812,0.0289630916846,-0.0333692220862,-0.0449833041864,0.998010088467
1498556251169155808,-0.0927571289062,-0.337095703125,0.0788044921875,0.0243652262596,-0.0320891647632,-0.0407661968313,0.998356017886
1498556251189453962,-0.0871760742187,-0.33575625,0.0811485351562,0.018278700898,-0.0296372843013,-0.0362246540481,0.998736849682
1498556251209669187,-0.0833809570312,-0.335086523437,0.0824879882812,0.0151043025539,-0.0291013478437,-0.0340293384948,0.998882863863
1498556251229473581,-0.0788044921875,-0.333635449219,0.0842739257812,0.0101995536063,-0.0281476023058,-0.0324592681264,0.999024563013
1498556251249441919,-0.0738931640625,-0.332630859375,0.08661796875,0.0037960626374,-0.0267758707515,-0.0299662319632,0.999185001687
1498556251269288675,-0.068312109375,-0.331849511719,0.09018984375,-0.00582309582586,-0.0243953726137,-0.0265767675247,0.999332093339
1498556251289461167,-0.0617264648437,-0.331403027344,0.0954360351563,-0.0197933746833,-0.0208767080657,-0.020919113925,0.9993671878
1498556251309683631,-0.0568151367187,-0.331849511719,0.0985614257812,-0.0283169050831,-0.0198516484,-0.0170484979004,0.999256430383
1498556251329333067,-0.0510108398437,-0.332072753906,0.102803027344,-0.0391399602168,-0.0186801608048,-0.0130060716919,0.998974452729
1498556251349317078,-0.0457646484375,-0.33307734375,0.105481933594,-0.0457882235912,-0.0181409330699,-0.0104240187818,0.998732038617
1498556251369291933,-0.0411881835937,-0.334751660156,0.107714355469,-0.0505509657602,-0.0181586228125,-0.00917063031034,0.998514278224
1498556251389426114,-0.0368349609375,-0.335979492188,0.111286230469,-0.0595176500807,-0.0171982771791,-0.00793749732859,0.998047526287
1498556251409673498,-0.0339328125,-0.337095703125,0.114523242187,-0.066983889076,-0.0173168811644,-0.0082699638696,0.99756949228
1498556251429342031,-0.0295795898438,-0.337988671875,0.118653222656,-0.0769054031791,-0.0169397549556,-0.00726593203287,0.996868000237
1498556251449643504,-0.0257844726562,-0.340109472656,0.120662402344,-0.0813192819168,-0.0172117568025,-0.00832705803012,0.996504686352
1498556251469282150,-0.0222125976562,-0.343234863281,0.121555371094,-0.0823019580562,-0.0188444369027,-0.00944037936539,0.996384541297
1498556251489462945,-0.0188639648438,-0.345802148437,0.123452929687,-0.085952425838,-0.0196989950803,-0.010355022873,0.996050653123
1498556251509871314,-0.0162966796875,-0.347699707031,0.125796972656,-0.0903520976775,-0.0202085737355,-0.0106844765834,0.99564750487
1498556251529351340,-0.0130596679687,-0.35004375,0.1285875,-0.0945631960824,-0.0212902460273,-0.0110688102992,0.995229626171
1498556251549314839,-0.0100458984375,-0.35272265625,0.129926953125,-0.0959339884729,-0.0225007048646,-0.0123703555994,0.995056461935
1498556251569260368,-0.008483203125,-0.356071289063,0.129926953125,-0.0937477435861,-0.0232968900104,-0.0164331727864,0.995187704064
1498556251589414264,-0.00725537109375,-0.35986640625,0.129368847656,-0.0900221268235,-0.0225983777029,-0.0205090051711,0.995472104438
1498556251609796025,-0.00658564453125,-0.36343828125,0.129592089844,-0.0877954319664,-0.0226008399992,-0.0231463736477,0.995613082248
1498556251629226524,-0.00591591796875,-0.368237988281,0.128252636719,-0.0806167823136,-0.0222842969512,-0.0265951490122,0.996141075635
1498556251649366747,-0.0053578125,-0.374265527344,0.125685351562,-0.0700200175281,-0.0224511778243,-0.03076395922,0.996818298675
1498556251669295535,-0.0060275390625,-0.380851171875,0.122448339844,-0.057603458617,-0.0243987427121,-0.0367050576078,0.997366172304
1498556251689461714,-0.00658564453125,-0.386878710937,0.120104296875,-0.0482564683075,-0.0263858862024,-0.0422971601637,0.997590120499
1498556251709878195,-0.0078134765625,-0.391231933594,0.118988085937,-0.0436904353699,-0.0278765648451,-0.0477808180396,0.997512424192
1498556251729301651,-0.0091529296875,-0.395361914062,0.116532421875,-0.0366485560106,-0.0289493678868,-0.0539212453987,0.997452413269
1498556251749340263,-0.0109388671875,-0.399603515625,0.112960546875,-0.0280293327486,-0.0290503944736,-0.0601626090406,0.997371992568
1498556251769444360,-0.0128364257813,-0.404068359375,0.109723535156,-0.0182026946574,-0.0285811545225,-0.0659763194216,0.997245659198
1498556251789624017,-0.014733984375,-0.408309960937,0.107491113281,-0.0102838145227,-0.0282878680779,-0.0714754283326,0.996988115688
1498556251809801984,-0.0168547851562,-0.412105078125,0.105147070312,-0.00355597249948,-0.0287619017623,-0.0766304213126,0.99663829276
1498556251829201538,-0.0198685546875,-0.415788574219,0.101351953125,0.00577939983995,-0.0297269499659,-0.0832268632386,0.996070377141
1498556251849394271,-0.0235520507813,-0.418690722656,0.0983381835937,0.0122662809517,-0.0301816400009,-0.0900930436139,0.995400346821
1498556251869177582,-0.0277936523437,-0.420811523438,0.0974452148437,0.0156381582294,-0.0310030644306,-0.0970336473958,0.994675187826
1498556251889587826,-0.0322584960937,-0.423378808594,0.0965522460938,0.020898103303,-0.0320766371629,-0.104093580737,0.993830410621
1498556251909869555,-0.0358303710937,-0.42594609375,0.0949895507812,0.0267558413016,-0.0334303660171,-0.10920908718,0.993096123677
1498556251929400934,-0.039737109375,-0.428848242187,0.0930919921875,0.0340669800387,-0.0355792359535,-0.113850499917,0.99227598102
1498556251949332735,-0.0436438476562,-0.431973632813,0.0910828125,0.0395840270339,-0.0366062759408,-0.118199109244,0.991525116142
1498556251969484419,-0.0481086914062,-0.434764160156,0.0885155273437,0.0460772564171,-0.0372755033722,-0.1234815583,0.990575452981
1498556251989636768,-0.0532432617187,-0.437443066406,0.0838274414062,0.0566443133728,-0.0376302000272,-0.129422916301,0.989254819824
1498556252009244244,-0.0582662109375,-0.439229003906,0.07858125,0.0684285775987,-0.0390431615083,-0.135065811827,0.987699543274
1498556252029368879,-0.06429375,-0.439563867187,0.0734466796875,0.0807188725207,-0.0408827187448,-0.140836178395,0.985889566727
1498556252049352974,-0.0702096679688,-0.439898730469,0.0693166992187,0.0902647131196,-0.0418169086809,-0.145999593906,0.984270159201
1498556252069345278,-0.0760139648438,-0.44023359375,0.0668610351562,0.096571435877,-0.0426473528295,-0.150309482327,0.98298637864
1498556252089613339,-0.0815950195312,-0.440345214844,0.0652983398437,0.100331614593,-0.0438255823309,-0.153882706408,0.982004581514
1498556252109730979,-0.0869528320312,-0.441349804687,0.0631775390625,0.104745939788,-0.0455891785718,-0.157932551703,0.980819669464
1498556252129150138,-0.0932036132813,-0.441907910156,0.0603870117187,0.110312416107,-0.047368395443,-0.161746281852,0.979502703556
1498556252149122666,-0.0994543945312,-0.44201953125,0.0582662109375,0.11468503852,-0.0483208592812,-0.164928373094,0.97842274516
1498556252169255202,-0.104142480469,-0.440903320313,0.058489453125,0.11607755713,-0.049158097815,-0.164969270707,0.978209906857
1498556252189897152,-0.106933007812,-0.439452246094,0.05982890625,0.115938988118,-0.0494537586755,-0.161317299578,0.978820313257
1498556252209204387,-0.1089421875,-0.438670898438,0.0597172851563,0.118128224248,-0.0508712985727,-0.157252738646,0.979147287085
1498556252229332656,-0.111062988281,-0.437219824219,0.0589359375,0.121368306579,-0.0521856703037,-0.151251642042,0.979627138636
1498556252249277694,-0.114188378906,-0.434652539062,0.0599405273438,0.119895714752,-0.052834535539,-0.146057257642,0.980561475344
1498556252269244347,-0.118318359375,-0.430522558594,0.0601637695312,0.119538579126,-0.0545283128899,-0.142971923709,0.98096698223
1498556252289713875,-0.123118066406,-0.425834472656,0.0574848632812,0.124666612766,-0.0572710419692,-0.142969811712,0.980172380937
1498556252309843067,-0.128252636719,-0.42148125,0.0539129882812,0.130781469036,-0.0603430704357,-0.145527387564,0.978813925461
1498556252329421411,-0.1339453125,-0.4161234375,0.0512340820312,0.136126940842,-0.0636882195937,-0.146511108149,0.977725811182
1498556252349296144,-0.137852050781,-0.4125515625,0.0521270507812,0.13421207816,-0.0635621308201,-0.142405393684,0.978604964963
1498556252369318345,-0.14019609375,-0.409537792969,0.05447109375,0.129814425262,-0.0617197262417,-0.135608714116,0.980280147224
1498556252389791048,-0.141758789063,-0.405519433594,0.0553640625,0.128428996741,-0.0598973379995,-0.12962698019,0.981384301741
1498556252409857621,-0.144102832031,-0.401724316406,0.05447109375,0.128927813002,-0.059813717178,-0.127130521701,0.98165053289
1498556252429124062,-0.146670117187,-0.395808398437,0.0533548828125,0.129658491026,-0.0608786952919,-0.124260010574,0.981856359116
1498556252449170426,-0.148009570312,-0.391343554687,0.0510108398437,0.132921822715,-0.0611105062383,-0.118718720381,0.982091218016
1498556252469335327,-0.150576855469,-0.387436816406,0.0466576171875,0.140745508284,-0.0638324736676,-0.114486607573,0.981330185967
1498556252489695447,-0.153479003906,-0.382413867187,0.04375546875,0.146262397036,-0.0676091574525,-0.111679507577,0.980593698037
1498556252509181686,-0.155264941406,-0.378395507812,0.0449833007812,0.141672355669,-0.0675234889474,-0.108467668353,0.981633478953
1498556252529160456,-0.156492773437,-0.372926074219,0.0488900390625,0.130701432626,-0.0639303514255,-0.104780213049,0.983794263365
1498556252549293257,-0.156492773437,-0.368572851562,0.0525735351562,0.12061787753,-0.0579910452475,-0.099395449762,0.986006547066
1498556252569438962,-0.157050878906,-0.36433125,0.0517921875,0.120104825974,-0.0574086485264,-0.0952792167662,0.98650947725
1498556252589663407,-0.157608984375,-0.359754785156,0.0497830078125,0.123497917188,-0.0592233214242,-0.0916113272131,0.986330688652
1498556252609171682,-0.157832226562,-0.355959667969,0.0492249023437,0.123207739261,-0.059896695793,-0.0880768792754,0.98664821601
1498556252629404597,-0.156939257812,-0.350266992187,0.0512340820312,0.1160520005,-0.057940951243,-0.0825440615604,0.988109941884
1498556252649332672,-0.1553765625,-0.345690527344,0.0542478515625,0.108113862849,-0.0542077693441,-0.0764775555299,0.989709095595
1498556252669345953,-0.154818457031,-0.341560546875,0.05447109375,0.106548798592,-0.0544260929319,-0.072687017178,0.990152387999
1498556252689479889,-0.15448359375,-0.337318945312,0.0517921875,0.111676232364,-0.0580351357819,-0.0702748280256,0.98955636054
1498556252709311363,-0.154371972656,-0.333635449219,0.050452734375,0.112924436267,-0.0595591059909,-0.0692530107895,0.989396182065
1498556252729770547,-0.153479003906,-0.329282226563,0.050452734375,0.111152184412,-0.0591918929313,-0.0672796245113,0.989755001926
1498556252749589602,-0.151023339844,-0.325821972656,0.0520154296875,0.106175465873,-0.0552318027678,-0.06282574462,0.990822458477
1498556252768852267,-0.148456054688,-0.322584960937,0.0534665039062,0.101997813633,-0.052573708347,-0.0587236546642,0.991657190559
1498556252789584376,-0.145777148437,-0.319236328125,0.054024609375,0.0997803433187,-0.0516074521104,-0.0545198073982,0.992173444804
1498556252808903728,-0.143879589844,-0.316669042969,0.0546943359375,0.0969226036613,-0.0502474766068,-0.0523015871675,0.992645830079
1498556252829288262,-0.1410890625,-0.31343203125,0.05625703125,0.0918670750801,-0.0484367627364,-0.0484916120666,0.993409726191
1498556252849326433,-0.137852050781,-0.310864746094,0.0572616210937,0.0881370710508,-0.0468836149375,-0.0442009414709,0.994022162796
1498556252869046855,-0.134949902344,-0.307850976562,0.0572616210937,0.0861655523914,-0.0465591402814,-0.0416306626217,0.994321191551
1498556252889991276,-0.131936132812,-0.304613964844,0.0569267578125,0.085092460447,-0.0467293600914,-0.0397432812192,0.994482836292
1498556252910172206,-0.129033984375,-0.3018234375,0.056703515625,0.0836204749521,-0.0465721662631,-0.0386706039368,0.994657344963
1498556252929404442,-0.12590859375,-0.3000375,0.057596484375,0.0801793123482,-0.0452315656447,-0.0358674243656,0.995107487265
1498556252949439615,-0.121220507812,-0.298139941406,0.059382421875,0.0741785442381,-0.0430791776066,-0.0309252044418,0.995834002112
1498556252968991801,-0.116644042969,-0.295795898437,0.0615032226562,0.0679464647056,-0.0410103617764,-0.0263458036457,0.996497529747
1498556252989784664,-0.112848925781,-0.293005371094,0.0627310546875,0.063468626504,-0.039990472149,-0.0244819938452,0.996881701891
1498556253009811796,-0.110281640625,-0.290996191406,0.06340078125,0.0606179858074,-0.0393464051771,-0.0246329599999,0.997081008483
1498556253028909063,-0.106151660156,-0.288763769531,0.064740234375,0.0561441080163,-0.0386996179336,-0.0221585605023,0.997426276425
1498556253048830512,-0.101240332031,-0.287201074219,0.0663029296875,0.0506099626326,-0.0364453215037,-0.0182715507606,0.997886025885
